City_ID,City,Lat,Lng,Max Temp,Humidity,Cloudiness,Wind Speed,Country,Date
0,grytviken,-54.2811,-36.5092,0.33,77,13,1.36,GS,2024-04-26
1,bikenibeu village,1.3673,173.1241,30.98,79,20,4.63,KI,2024-04-26
2,adamstown,-25.066,-130.1015,23.44,88,19,8.23,PN,2024-04-26
3,whitehorse,60.7161,-135.0538,13.43,24,75,1.03,CA,2024-04-26
4,idaho falls,43.4666,-112.0341,14.45,60,75,2.57,US,2024-04-26
5,pacific grove,36.6177,-121.9166,18.18,77,75,5.66,US,2024-04-26
6,ushuaia,-54.8,-68.3,4.81,87,0,2.57,AR,2024-04-26
7,port-aux-francais,-49.35,70.2167,5.28,79,43,7.44,TF,2024-04-26
8,pierre,44.3683,-100.351,19.51,59,100,11.83,US,2024-04-26
9,puerto natales,-51.7236,-72.4875,1.62,73,78,3.51,CL,2024-04-26
10,anadyr,64.75,177.4833,1.28,86,100,5.0,RU,2024-04-26
11,itapipoca,-3.4944,-39.5786,23.8,82,62,1.36,BR,2024-04-26
12,sisimiut,66.9395,-53.6735,0.52,83,100,2.49,GL,2024-04-26
13,kodiak,57.79,-152.4072,5.73,87,100,5.66,US,2024-04-26
14,touros,-5.1989,-35.4608,26.66,86,83,5.05,BR,2024-04-26
15,papatowai,-46.5619,169.4708,8.86,69,18,6.37,NZ,2024-04-26
16,west island,-12.1568,96.8225,26.99,89,40,7.72,CC,2024-04-26
17,waitangi,-43.9535,-176.5597,17.68,87,100,6.71,NZ,2024-04-26
18,mil'kovo,55.6078,37.7956,15.75,85,100,2.34,RU,2024-04-26
19,khandyga,62.6667,135.6,-7.19,79,96,1.93,RU,2024-04-26
20,ilulissat,69.2167,-51.1,0.01,93,100,2.57,GL,2024-04-26
21,punta arenas,-53.15,-70.9167,5.06,70,0,3.09,CL,2024-04-26
22,hamilton,39.1834,-84.5333,14.47,46,0,5.14,US,2024-04-26
23,margaret river,-33.95,115.0667,14.01,64,67,3.3,AU,2024-04-26
24,isafjordur,66.0755,-23.124,2.3,68,48,2.15,IS,2024-04-26
25,sur,22.5667,59.5289,26.86,73,3,4.95,OM,2024-04-26
26,talnakh,69.4865,88.3972,-13.06,95,89,1.73,RU,2024-04-26
27,rongelap,11.1635,166.8941,27.13,79,96,10.08,MH,2024-04-26
28,saipan,15.1355,145.701,31.39,62,0,8.23,MP,2024-04-26
29,utrik,11.2278,169.8474,27.11,75,94,10.08,MH,2024-04-26
30,uturoa,-16.7333,-151.4333,28.25,76,99,3.68,PF,2024-04-26
31,bethel,41.3712,-73.414,9.1,58,16,0.89,US,2024-04-26
32,quellon,-43.1167,-73.6167,6.75,86,91,5.77,CL,2024-04-26
33,tiksi,71.6872,128.8694,-13.23,86,99,4.38,RU,2024-04-26
34,yorkton,51.2167,-102.4677,18.91,34,100,2.57,CA,2024-04-26
35,suva,-18.1416,178.4415,30.71,70,75,2.57,FJ,2024-04-26
36,cuito,-12.3833,16.9333,13.77,60,59,1.1,AO,2024-04-26
37,tortoli,39.9256,9.6572,12.9,58,0,1.03,IT,2024-04-26
38,mamuju,-2.6748,118.8885,27.55,83,96,0.8,ID,2024-04-26
39,buka,40.8108,69.1986,16.81,64,94,0.33,UZ,2024-04-26
40,reggane,26.7158,0.1714,29.64,11,0,5.23,DZ,2024-04-26
41,bredasdorp,-34.5322,20.0403,15.13,97,64,0.86,ZA,2024-04-26
42,berlin,52.5244,13.4105,5.04,90,0,2.68,DE,2024-04-26
43,labytnangi,66.6572,66.4183,-10.35,97,98,2.19,RU,2024-04-26
44,yellowknife,62.456,-114.3525,0.79,85,75,9.26,CA,2024-04-26
45,puerto ayora,-0.7393,-90.3518,25.31,97,44,1.34,EC,2024-04-26
46,invercargill,-46.4,168.35,6.68,92,93,2.68,NZ,2024-04-26
47,kavieng,-2.5744,150.7967,29.6,73,72,3.84,PG,2024-04-26
48,kendari,-3.945,122.4989,28.28,78,16,0.42,ID,2024-04-26
49,tobelo,1.7284,128.0095,29.12,76,18,3.09,ID,2024-04-26
50,ribeira grande,38.5167,-28.7,15.43,91,60,1.79,PT,2024-04-26
51,mahalapye,-23.1041,26.8142,21.03,45,11,4.95,BW,2024-04-26
52,port elizabeth,-33.918,25.5701,17.83,88,100,6.69,ZA,2024-04-26
53,arraial do cabo,-22.9661,-42.0278,24.5,82,0,4.48,BR,2024-04-26
54,kourou,5.1552,-52.6478,24.03,83,100,1.51,GF,2024-04-26
55,yeed,4.55,43.0333,23.62,87,100,3.87,SO,2024-04-26
56,mana,5.6592,-53.7767,25.34,81,8,2.76,GF,2024-04-26
57,iqaluit,63.7506,-68.5145,-11.15,67,75,5.66,CA,2024-04-26
58,krusevac,43.58,21.3339,6.2,83,4,0.92,RS,2024-04-26
59,castillos,-34.1667,-53.8333,16.84,78,93,2.83,UY,2024-04-26
60,tsiombe,-25.3,45.4833,21.35,96,17,3.01,MG,2024-04-26
61,ishigaki,24.3448,124.1572,26.07,94,75,2.06,JP,2024-04-26
62,flin flon,54.7682,-101.865,13.47,57,76,3.46,CA,2024-04-26
63,tchintabaraden,15.8969,5.7985,30.44,12,0,3.55,NE,2024-04-26
64,tafuna,-14.3358,-170.72,29.54,68,40,5.82,AS,2024-04-26
65,mukalla,14.5425,49.1242,26.84,75,59,2.02,YE,2024-04-26
66,blackmans bay,-43.0167,147.3167,14.85,64,17,1.34,AU,2024-04-26
67,queenstown,-31.8976,26.8753,14.06,84,100,2.07,ZA,2024-04-26
68,kitimat,54.0524,-128.6534,16.21,53,19,2.3,CA,2024-04-26
69,port mathurin,-19.6833,63.4167,26.55,76,14,7.16,MU,2024-04-26
70,udachny,66.4167,112.4,-8.64,89,91,3.25,RU,2024-04-26
71,dudinka,69.4058,86.1778,-20.18,100,100,0.89,RU,2024-04-26
72,georgetown,5.4112,100.3354,27.97,89,20,1.03,MY,2024-04-26
73,moranbah,-22.0016,148.0466,25.18,43,96,6.82,AU,2024-04-26
74,avarua,-21.2078,-159.775,27.03,74,40,5.66,CK,2024-04-26
75,san patricio,28.017,-97.5169,26.76,87,100,8.52,US,2024-04-26
76,nuuk,64.1835,-51.7216,2.34,93,100,9.26,GL,2024-04-26
77,rajura,19.7833,79.3667,32.21,31,100,3.27,IN,2024-04-26
78,aguada de pasajeros,22.385,-80.8508,24.37,55,0,5.66,CU,2024-04-26
79,ermoupolis,37.4423,24.9425,16.39,67,100,4.12,GR,2024-04-26
80,wailua homesteads,22.0669,-159.378,26.24,74,100,6.17,US,2024-04-26
81,stanley,54.868,-1.6985,2.09,93,20,2.06,GB,2024-04-26
82,haiku-pauwela,20.9219,-156.3051,26.79,69,40,11.83,US,2024-04-26
83,nizamabad,18.6667,78.1167,30.44,30,15,2.31,IN,2024-04-26
84,raja,8.4596,25.678,26.98,44,100,2.25,SS,2024-04-26
85,alo,7.4178,6.7371,27.14,83,100,2.02,NG,2024-04-26
86,kuta,-8.7233,115.1723,27.97,94,20,2.24,ID,2024-04-26
87,san pedro pochutla,15.7333,-96.4667,28.89,57,1,3.36,MX,2024-04-26
88,karratha,-20.7377,116.8463,28.79,35,100,6.32,AU,2024-04-26
89,changli,39.7042,119.1506,20.81,47,88,1.9,CN,2024-04-26
90,mount pearl,47.5166,-52.7813,3.41,83,40,7.72,CA,2024-04-26
91,havre,49.5833,0.3333,8.87,81,0,4.12,FR,2024-04-26
92,beyneu,45.3167,55.2,16.98,70,0,5.39,KZ,2024-04-26
93,hithadhoo,-0.6,73.0833,29.05,76,78,2.66,MV,2024-04-26
94,weno,7.4515,151.8468,30.97,84,100,3.6,FM,2024-04-26
95,aoulef,26.9667,1.0833,28.84,11,0,5.82,DZ,2024-04-26
96,bac lieu,9.285,105.7244,31.19,66,96,3.31,VN,2024-04-26
97,caminauit,12.3314,121.0825,31.49,57,6,4.58,PH,2024-04-26
98,mooloolaba,-26.6833,153.1167,21.14,93,94,1.34,AU,2024-04-26
99,ryotsu-minato,38.0833,138.4333,17.79,58,97,0.98,JP,2024-04-26
100,saldanha,-33.0117,17.9442,14.03,87,100,7.29,ZA,2024-04-26
101,binji,13.2228,4.9096,33.15,30,0,3.16,NG,2024-04-26
102,port blair,11.6667,92.75,27.02,94,0,1.03,IN,2024-04-26
103,porbandar,21.6422,69.6093,25.39,76,0,3.99,IN,2024-04-26
104,codrington,-38.2667,141.9667,13.37,68,100,3.87,AU,2024-04-26
105,north battleford,52.7834,-108.2847,18.05,22,20,4.63,CA,2024-04-26
106,nirasaki,35.7,138.45,21.38,53,99,1.07,JP,2024-04-26
107,klyuchi,52.2667,79.1667,0.88,68,5,4.64,RU,2024-04-26
108,ponta delgada,37.7333,-25.6667,18.44,82,40,5.14,PT,2024-04-26
109,maintirano,-18.0667,44.0167,24.95,84,100,4.0,MG,2024-04-26
110,richards bay,-28.783,32.0377,21.64,90,96,3.93,ZA,2024-04-26
111,turaif,31.6725,38.6637,21.14,19,0,4.12,SA,2024-04-26
112,khash,28.2211,61.2158,15.03,66,74,2.07,IR,2024-04-26
113,kirakira,-10.4544,161.9205,29.68,77,75,3.62,SB,2024-04-26
114,mata-utu,-13.2816,-176.1745,29.59,73,16,4.39,WF,2024-04-26
115,enewetak,11.3474,162.3373,27.47,78,86,10.13,MH,2024-04-26
116,antofagasta,-23.65,-70.4,17.6,88,96,1.91,CL,2024-04-26
117,miquelon,47.0975,-56.3814,0.0,70,21,10.06,PM,2024-04-26
118,st. john's,47.5649,-52.7093,3.87,83,40,7.72,CA,2024-04-26
119,port alfred,-33.5906,26.891,16.77,94,100,2.24,ZA,2024-04-26
120,pogoanele,44.9167,27.0,10.67,89,100,2.69,RO,2024-04-26
121,jamestown,42.097,-79.2353,8.62,45,0,4.12,US,2024-04-26
122,vorgashor,67.5833,63.95,-14.55,97,100,2.6,RU,2024-04-26
123,peace river,56.2501,-117.286,8.17,57,75,8.75,CA,2024-04-26
124,fort st. john,56.2499,-120.8529,3.94,70,75,7.2,CA,2024-04-26
125,griffith,41.5284,-87.4237,12.27,69,0,5.14,US,2024-04-26
126,sarakhs,36.5449,61.1577,18.34,57,100,1.88,IR,2024-04-26
127,konarka,19.9,86.1167,28.22,83,5,6.19,IN,2024-04-26
128,adam,22.3756,57.5233,24.47,66,0,2.43,OM,2024-04-26
129,salekhard,66.53,66.6019,-10.34,97,100,2.68,RU,2024-04-26
130,siwa oasis,29.2041,25.5195,19.42,45,71,3.85,EG,2024-04-26
131,afaahiti,-17.75,-149.2833,28.93,80,100,2.73,PF,2024-04-26
132,pirallahi,40.4723,50.333,13.08,70,0,3.31,AZ,2024-04-26
133,kuraymah,18.55,31.85,30.26,18,0,3.69,SD,2024-04-26
134,margate,51.3813,1.3862,6.84,85,94,0.45,GB,2024-04-26
135,susuman,62.7833,148.1667,-1.68,90,100,1.34,RU,2024-04-26
136,aripuana,-9.1667,-60.6333,23.31,98,10,0.82,BR,2024-04-26
137,gadzhiyevo,69.2551,33.3362,0.32,92,100,1.7,RU,2024-04-26
138,riosucio,5.4216,-75.7032,18.89,99,89,0.51,CO,2024-04-26
139,pariaman,-0.619,100.12,25.03,82,52,1.88,ID,2024-04-26
140,san antonio de pale,-1.4014,5.6325,28.37,83,98,4.06,GQ,2024-04-26
141,sterling,39.0062,-77.4286,13.64,68,75,3.09,US,2024-04-26
142,midvagur,62.0511,-7.1939,4.46,81,75,7.72,FO,2024-04-26
143,qaqortoq,60.7167,-46.0333,4.0,86,100,5.32,GL,2024-04-26
144,ola,59.5833,151.2833,0.08,90,100,4.47,RU,2024-04-26
145,umluj,25.0213,37.2685,28.0,44,5,4.65,SA,2024-04-26
146,hawaiian paradise park,19.5933,-154.9731,26.13,72,100,4.63,US,2024-04-26
147,trujillo,-8.116,-79.03,20.98,83,47,3.6,PE,2024-04-26
148,gimbi,9.1667,35.8333,14.39,85,100,1.54,ET,2024-04-26
149,holma,9.9008,13.0567,28.01,49,28,2.14,NG,2024-04-26
150,happy valley-goose bay,53.3168,-60.3315,-3.83,93,100,1.54,CA,2024-04-26
151,prince rupert,54.3161,-130.3201,13.05,69,0,5.14,CA,2024-04-26
152,college,64.8569,-147.8028,16.18,28,40,0.45,US,2024-04-26
153,geneina,13.45,22.45,28.84,31,13,3.54,SD,2024-04-26
154,atafu village,-8.5421,-172.5159,29.45,75,25,4.98,TK,2024-04-26
155,yanchep,-31.55,115.6833,20.34,47,100,4.74,AU,2024-04-26
156,puerto baquerizo moreno,-0.9,-89.6,25.17,84,58,2.77,EC,2024-04-26
157,viedma,-40.8135,-62.9967,13.34,42,47,4.82,AR,2024-04-26
158,raychikhinsk,49.7838,129.4121,6.6,58,100,8.82,RU,2024-04-26
159,senanga,-16.1167,23.2667,16.71,37,0,2.65,ZM,2024-04-26
160,vallenar,-28.5708,-70.7581,20.86,42,100,0.85,CL,2024-04-26
161,praia da vitoria,38.7333,-27.0667,15.14,94,75,4.97,PT,2024-04-26
162,nemuro,43.3236,145.575,9.54,81,0,3.64,JP,2024-04-26
163,mawlaik,23.6333,94.4167,27.9,42,0,0.15,MM,2024-04-26
164,olonkinbyen,70.9221,-8.7187,-1.91,77,88,5.94,SJ,2024-04-26
165,rawson,-43.3002,-65.1023,16.49,32,1,12.07,AR,2024-04-26
166,lazaro cardenas,17.9583,-102.2,26.63,75,9,3.65,MX,2024-04-26
167,mpika,-11.8343,31.4529,13.68,79,100,1.9,ZM,2024-04-26
168,thompson,55.7435,-97.8558,15.09,36,75,5.66,CA,2024-04-26
169,santa terezinha,-29.9002,-50.0904,20.6,83,30,8.58,BR,2024-04-26
170,akureyri,65.6835,-18.0878,1.96,93,100,2.57,IS,2024-04-26
171,mazagao,-0.115,-51.2894,23.45,98,100,1.35,BR,2024-04-26
172,aasiaat,68.7098,-52.8699,-3.13,91,100,3.26,GL,2024-04-26
173,mejit,10.2753,170.8646,27.29,73,30,10.69,MH,2024-04-26
174,boende,-0.2167,20.8667,23.71,91,100,1.24,CD,2024-04-26
175,colona,41.4839,-90.3532,16.29,40,0,6.17,US,2024-04-26
176,ceerigaabo,10.6162,47.368,17.5,87,99,4.22,SO,2024-04-26
177,ancud,-41.8697,-73.8203,7.84,86,100,7.65,CL,2024-04-26
178,taksimo,56.3444,114.8794,0.96,43,100,2.69,RU,2024-04-26
179,albany,42.6001,-73.9662,9.23,36,0,3.02,US,2024-04-26
180,keflavik,64.0049,-22.5624,5.95,87,0,6.69,IS,2024-04-26
181,yangjiang,21.85,111.9667,27.16,87,100,2.47,CN,2024-04-26
182,bilibino,68.0546,166.4372,-6.62,71,100,1.21,RU,2024-04-26
183,tucuma,-0.1833,-50.05,24.93,94,98,2.59,BR,2024-04-26
184,fengcheng,40.4536,124.0717,16.36,58,0,3.02,CN,2024-04-26
185,fort bragg,35.139,-79.006,22.91,47,75,1.54,US,2024-04-26
186,gisborne,-38.6533,178.0042,20.49,62,98,4.17,NZ,2024-04-26
187,odda,60.0691,6.5457,5.43,88,99,2.28,NO,2024-04-26
188,palikir - national government center,6.9248,158.1611,30.47,79,100,5.14,FM,2024-04-26
189,lebu,-37.6167,-73.65,12.31,86,88,4.85,CL,2024-04-26
190,saint-philippe,-21.3585,55.7679,23.77,83,37,4.8,RE,2024-04-26
191,puerto san jose,13.9256,-90.8244,29.03,79,0,0.0,GT,2024-04-26
192,hanceville,34.0607,-86.7675,20.65,59,100,1.77,US,2024-04-26
193,badger,64.8,-147.5333,16.14,29,40,0.89,US,2024-04-26
194,nar'yan-mar,67.6713,53.087,0.06,97,100,5.81,RU,2024-04-26
195,tolanaro,-25.0319,46.9987,24.04,94,40,7.2,MG,2024-04-26
196,longyearbyen,78.2186,15.6401,-3.09,68,0,5.66,SJ,2024-04-26
197,faqirwali,29.4663,73.034,27.81,20,4,4.1,PK,2024-04-26
198,savonlinna,61.8699,28.88,1.03,100,100,2.06,FI,2024-04-26
199,muli,2.9167,73.5667,29.27,77,100,4.13,MV,2024-04-26
200,prado,-17.3411,-39.2208,24.88,87,48,2.87,BR,2024-04-26
201,nizhnesortymskiy,62.4397,71.7603,-10.61,96,61,2.54,RU,2024-04-26
202,tavrichanka,43.3378,131.8639,11.92,67,79,1.94,RU,2024-04-26
203,ungsang-nodongjagu,42.3578,130.4622,15.51,49,97,2.3,KP,2024-04-26
204,tadmur,34.5608,38.2805,25.05,22,100,2.94,SY,2024-04-26
205,sarikamis,40.3381,42.5731,8.2,58,66,2.19,TR,2024-04-26
206,kailua-kona,19.6406,-155.9956,26.98,85,75,5.66,US,2024-04-26
207,lukolela,-1.0605,17.1821,22.81,91,100,0.86,CD,2024-04-26
208,olyokminsk,60.3736,120.4264,-2.26,66,100,2.49,RU,2024-04-26
209,kirensk,57.7853,108.1119,-1.13,88,100,1.34,RU,2024-04-26
210,lubango,-14.9172,13.4925,13.92,67,7,2.06,AO,2024-04-26
211,wanda,-25.9693,-54.5697,25.43,84,10,1.03,AR,2024-04-26
212,northam,51.0333,-4.2167,8.67,79,85,2.27,GB,2024-04-26
213,ayora,39.0585,-1.0563,10.6,81,58,0.55,ES,2024-04-26
214,harper,4.375,-7.7169,27.73,83,92,2.96,LR,2024-04-26
215,urangan,-25.3,152.9,22.33,80,90,4.47,AU,2024-04-26
216,heroica caborca,30.7167,-112.15,24.11,29,0,6.29,MX,2024-04-26
217,tottori,35.5,134.2333,21.04,68,0,2.06,JP,2024-04-26
218,khorixas,-20.3667,14.9667,22.59,25,0,2.07,NA,2024-04-26
219,amungan,15.3652,119.9582,31.35,62,6,3.05,PH,2024-04-26
220,prainha,-1.8,-53.48,23.83,98,100,0.83,BR,2024-04-26
221,brisas de zicatela,15.8369,-97.0419,30.29,74,0,3.09,MX,2024-04-26
222,belmonte,-15.8631,-38.8828,25.91,88,10,3.86,BR,2024-04-26
223,edinburgh of the seven seas,-37.0676,-12.3116,18.57,88,100,15.59,SH,2024-04-26
224,birao,10.2849,22.7882,30.75,32,91,1.56,CF,2024-04-26
225,handan,36.6006,114.4678,22.91,45,1,4.52,CN,2024-04-26
226,gamba,-2.65,10.0,26.41,94,100,1.7,GA,2024-04-26
227,shimoda,34.6667,138.95,21.17,68,100,4.58,JP,2024-04-26
228,makamba,-4.1348,29.804,17.39,95,99,1.5,BI,2024-04-26
229,tazovsky,67.4667,78.7,-3.71,95,100,3.45,RU,2024-04-26
230,jackson,42.4165,-122.8345,14.11,68,100,2.57,US,2024-04-26
231,aykhal,66.0,111.5,-9.02,90,97,4.63,RU,2024-04-26
232,ust-nera,64.5667,143.2,1.0,90,100,1.23,RU,2024-04-26
233,luderitz,-26.6481,15.1594,15.99,74,98,6.82,NA,2024-04-26
234,rakvere,59.3464,26.3558,2.7,98,100,2.74,EE,2024-04-26
235,fedorovka,53.6314,62.7078,5.17,54,100,2.16,KZ,2024-04-26
236,mahibadhoo,3.7833,72.9667,29.08,77,100,2.94,MV,2024-04-26
237,bali chak,22.3667,87.55,30.07,50,0,1.53,IN,2024-04-26
238,martin,27.0837,-80.4164,23.87,64,0,3.38,US,2024-04-26
239,emerald,-23.5333,148.1667,23.52,29,4,6.39,AU,2024-04-26
240,severobaykal'sk,55.65,109.3167,-0.27,65,100,1.71,RU,2024-04-26
241,carnarvon,-24.8667,113.6333,25.87,46,100,5.53,AU,2024-04-26
242,smithers,54.7804,-127.1743,12.18,37,75,3.09,CA,2024-04-26
243,berezovyy,51.6667,135.7,11.86,38,100,7.25,RU,2024-04-26
244,mount isa,-20.7333,139.5,23.87,31,93,6.17,AU,2024-04-26
245,sitka,57.0531,-135.33,11.94,58,0,3.09,US,2024-04-26
246,assens,55.2702,9.9008,3.94,91,75,3.91,DK,2024-04-26
247,yarmouth,41.7057,-70.2286,5.54,64,0,2.06,US,2024-04-26
248,karor,31.2274,70.9492,26.1,38,100,2.65,PK,2024-04-26
249,gaspe,48.8334,-64.4819,-0.88,69,75,3.09,CA,2024-04-26
250,marat,25.0701,45.4615,23.37,14,1,3.16,SA,2024-04-26
251,mariehamn,60.0973,19.9348,1.92,93,0,2.06,AX,2024-04-26
252,harnosand,62.6323,17.9379,1.01,94,100,3.84,SE,2024-04-26
253,baoying,33.2292,119.3092,18.7,72,27,4.79,CN,2024-04-26
254,okha,53.5739,142.9478,5.7,93,100,4.92,RU,2024-04-26
255,simanggang,1.2472,111.4528,24.99,94,20,0.0,MY,2024-04-26
256,la passe,45.5549,-0.8967,11.13,79,100,1.98,FR,2024-04-26
257,villa tecolutilla,18.2833,-93.3167,26.83,78,0,5.12,MX,2024-04-26
258,chonchi,-42.6128,-73.8092,7.56,89,100,3.47,CL,2024-04-26
259,an nuhud,12.7,28.4333,26.47,14,2,3.73,SD,2024-04-26
260,iskateley,67.6803,53.1512,0.01,97,100,5.81,RU,2024-04-26
261,illapel,-31.6308,-71.1653,14.83,31,100,0.92,CL,2024-04-26
262,vilyuchinsk,52.9306,158.4028,11.15,74,100,2.27,RU,2024-04-26
263,guiuan,11.0333,125.7247,28.13,82,9,5.62,PH,2024-04-26
264,pinheiro machado,-31.5783,-53.3811,15.03,88,24,3.68,BR,2024-04-26
265,varena,54.2167,24.5667,2.1,95,48,1.63,LT,2024-04-26
266,hailey,43.5196,-114.3153,16.92,34,40,7.15,US,2024-04-26
267,ouargla,31.9493,5.325,21.04,19,40,4.63,DZ,2024-04-26
268,olinda,-8.0089,-34.8553,28.01,74,70,4.37,BR,2024-04-26
269,qeshm,26.9581,56.2719,22.93,57,0,1.82,IR,2024-04-26
270,villa gesell,-37.2639,-56.973,13.36,88,82,4.44,AR,2024-04-26
271,santa luzia,-19.7697,-43.8514,20.2,84,0,2.1,BR,2024-04-26
272,polyarnyy,69.1989,33.4478,0.19,92,100,1.4,RU,2024-04-26
273,valdivia,-39.8142,-73.2459,13.05,92,55,4.09,CL,2024-04-26
274,xining,36.6167,101.7667,13.69,30,100,0.98,CN,2024-04-26
275,sinabang,2.4803,96.3801,27.61,82,100,0.12,ID,2024-04-26
276,sussex,41.1834,-74.6663,9.47,46,0,1.11,US,2024-04-26
277,ta`u,-14.2336,-169.5144,29.19,69,11,5.52,AS,2024-04-26
278,shakawe,-18.3667,21.85,17.34,36,0,1.71,BW,2024-04-26
279,beloyarskiy,63.7119,66.6722,-5.0,95,100,1.34,RU,2024-04-26
280,howrah,22.5892,88.3103,30.0,84,0,2.57,IN,2024-04-26
281,egilsstadir,65.2653,-14.3948,-0.05,93,75,3.09,IS,2024-04-26
282,lompoc,34.6391,-120.4579,17.79,75,40,10.8,US,2024-04-26
283,hamlin,43.3031,-77.9211,5.18,59,0,2.26,US,2024-04-26
284,volchansk,59.9378,60.081,-1.95,92,100,1.12,RU,2024-04-26
285,gorlice,49.6556,21.1604,4.2,88,64,1.34,PL,2024-04-26
286,taoudenni,22.6783,-3.9836,30.83,12,6,4.45,ML,2024-04-26
287,kaseda-shirakame,31.4167,130.3167,17.78,79,100,2.14,JP,2024-04-26
288,palmer,42.1584,-72.3287,11.23,38,0,0.18,US,2024-04-26
289,necochea,-38.5473,-58.7368,11.55,89,96,5.65,AR,2024-04-26
290,kruisfontein,-34.0033,24.7314,16.6,91,100,4.42,ZA,2024-04-26
291,cockburn town,21.4612,-71.1419,25.51,83,100,8.56,TC,2024-04-26
292,kapuskasing,49.4169,-82.4331,11.05,24,20,3.6,CA,2024-04-26
293,namibe,-15.1961,12.1522,23.9,71,32,2.24,AO,2024-04-26
294,mufumbwe,-13.6833,24.8,13.51,54,5,1.96,ZM,2024-04-26
295,padangsidempuan,1.3667,99.2667,24.59,92,100,0.6,ID,2024-04-26
296,ar ruseris,11.8659,34.3869,31.49,44,100,5.28,SD,2024-04-26
297,glace bay,46.1969,-59.957,0.99,71,20,2.06,CA,2024-04-26
298,kingston,17.997,-76.7936,30.53,66,20,3.09,JM,2024-04-26
299,cabo san lucas,22.8909,-109.9124,28.17,39,75,3.09,MX,2024-04-26
300,n'zeto,-7.2312,12.8666,26.18,91,100,2.42,AO,2024-04-26
301,nehe,48.4833,124.8333,10.65,31,0,6.44,CN,2024-04-26
302,ilhabela,-23.7781,-45.3581,22.75,94,99,3.27,BR,2024-04-26
303,colonia,50.9333,6.95,8.86,64,20,3.6,DE,2024-04-26
304,hermanus,-34.4187,19.2345,16.0,94,25,3.73,ZA,2024-04-26
305,madinat ash shamal,26.1293,51.2009,25.02,63,0,2.47,QA,2024-04-26
306,fauske,67.2588,15.3918,5.02,71,100,3.23,NO,2024-04-26
307,san dionisio ocotepec,16.8,-96.4,29.99,40,3,3.65,MX,2024-04-26
308,pitangui,-19.6828,-44.8903,22.39,66,40,2.94,BR,2024-04-26
309,ankazobe,-18.3167,47.1167,15.32,97,54,1.76,MG,2024-04-26
310,dalby,-27.1833,151.2667,21.83,53,9,3.5,AU,2024-04-26
311,flying fish cove,-10.4217,105.6791,27.82,89,100,5.14,CX,2024-04-26
312,chinde,26.8418,88.0763,22.0,18,0,0.93,NP,2024-04-26
313,montepuez,-13.1256,38.9997,18.37,90,94,3.64,MZ,2024-04-26
314,sincelejo,9.3047,-75.3978,25.33,92,100,3.39,CO,2024-04-26
315,santiago de cao,-7.9589,-79.2392,21.07,83,64,3.6,PE,2024-04-26
316,new norfolk,-42.7826,147.0587,15.51,58,81,2.2,AU,2024-04-26
317,tabas,33.5959,56.9244,17.24,67,87,1.39,IR,2024-04-26
318,nogliki,51.8333,143.1667,10.19,74,0,4.92,RU,2024-04-26
319,berezovskiy,55.6,86.2,-2.77,50,81,1.53,RU,2024-04-26
320,choyr,46.3611,108.3611,-1.49,88,100,6.8,MN,2024-04-26
321,san carlos de bariloche,-41.1456,-71.3082,4.86,87,100,9.26,AR,2024-04-26
322,shimanovsk,52.0,127.7,3.32,64,51,7.97,RU,2024-04-26
323,ballina,-28.8667,153.5667,20.99,68,60,5.3,AU,2024-04-26
324,ivatsevichy,52.709,25.3401,3.22,92,100,1.11,BY,2024-04-26
325,iscehisar,38.8619,30.7503,13.13,57,9,3.11,TR,2024-04-26
326,port lincoln,-34.7333,135.8667,15.3,56,100,2.61,AU,2024-04-26
327,balykshi,47.0667,51.8667,13.0,88,0,4.0,KZ,2024-04-26
328,misratah,32.3754,15.0925,15.62,63,100,4.1,LY,2024-04-26
329,hassan,13.0006,76.0994,22.5,71,1,1.46,IN,2024-04-26
330,soe,-9.8607,124.284,24.7,74,88,2.12,ID,2024-04-26
331,whistler,50.1164,-122.9695,8.57,76,100,0.0,CA,2024-04-26
332,nebraska city,40.6767,-95.8592,14.89,85,100,7.72,US,2024-04-26
333,uyar,55.81,94.3153,-2.19,87,100,3.98,RU,2024-04-26
334,debark',13.1561,37.8981,15.04,36,100,0.38,ET,2024-04-26
335,hadibu,12.65,54.0333,27.03,75,50,1.8,YE,2024-04-26
336,east london,-33.0153,27.9116,18.26,79,100,5.53,ZA,2024-04-26
337,hopkinsville,36.8656,-87.4886,19.02,56,100,2.72,US,2024-04-26
338,remire-montjoly,4.9167,-52.2667,24.02,94,0,0.0,GF,2024-04-26
339,huntingdon,52.3305,-0.1865,3.81,89,51,2.13,GB,2024-04-26
340,acarau,-2.8856,-40.12,25.47,84,100,3.34,BR,2024-04-26
341,karaton,-6.3424,106.1045,26.29,87,98,0.61,ID,2024-04-26
342,hukumati azrah,34.1736,69.6457,4.82,64,100,1.28,AF,2024-04-26
343,nikolayevsk-on-amure,53.1406,140.73,12.9,39,2,6.26,RU,2024-04-26
344,gustavsberg,59.3268,18.3898,1.55,95,100,2.77,SE,2024-04-26
345,arad,46.3333,21.75,8.3,82,34,0.51,RO,2024-04-26
346,policoro,40.2115,16.6726,8.88,75,5,0.89,IT,2024-04-26
347,dettelbach,49.8,10.1833,3.91,83,53,2.55,DE,2024-04-26
348,botou,38.0667,116.5667,24.17,38,0,6.92,CN,2024-04-26
349,constantia,44.1833,28.65,12.61,92,48,5.56,RO,2024-04-26
350,tyukhtet,56.5389,89.3011,0.74,94,100,2.67,RU,2024-04-26
351,breyten,-26.3018,29.987,10.83,99,36,2.16,ZA,2024-04-26
352,imbituba,-28.24,-48.6703,18.17,93,72,5.08,BR,2024-04-26
353,abepura,-2.6333,140.5833,30.45,66,20,3.09,ID,2024-04-26
354,abancay,-13.6339,-72.8814,15.61,84,100,1.03,PE,2024-04-26
355,mount gambier,-37.8333,140.7667,13.25,61,100,2.39,AU,2024-04-26
356,silvi,42.5456,14.122,11.16,88,100,1.03,IT,2024-04-26
357,kothen,51.75,11.9667,5.28,88,99,3.79,DE,2024-04-26
358,bamboo flat,11.7,92.7167,27.05,94,0,1.03,IN,2024-04-26
359,lihue,21.9789,-159.3672,26.58,72,100,6.17,US,2024-04-26
360,letpandan,17.7833,95.75,29.72,69,6,3.16,MM,2024-04-26
361,tukrah,32.5341,20.5791,14.43,69,6,3.19,LY,2024-04-26
362,miles city,46.4083,-105.8406,22.54,23,0,6.69,US,2024-04-26
363,wanning,18.8003,110.3967,30.34,70,0,7.23,CN,2024-04-26
364,hilo,19.7297,-155.09,27.38,75,100,4.63,US,2024-04-26
365,golyshmanovo,56.3979,68.3728,2.15,66,37,2.91,RU,2024-04-26
366,priargunsk,50.3691,119.1012,7.46,34,15,4.55,RU,2024-04-26
367,magistral'nyy,56.1725,107.4458,-0.35,92,100,3.81,RU,2024-04-26
368,eyl,7.9803,49.8164,28.16,73,100,1.63,SO,2024-04-26
369,ouani,-12.1322,44.4258,27.75,80,100,5.23,KM,2024-04-26
370,philadelphia,39.9523,-75.1638,12.1,47,75,6.17,US,2024-04-26
371,luanda,-8.8368,13.2343,29.0,92,100,2.06,AO,2024-04-26
372,ganjam,19.3833,85.0667,28.69,80,5,5.04,IN,2024-04-26
373,zhanaozen,43.3,52.8,16.34,56,0,4.21,KZ,2024-04-26
374,giddings,30.1827,-96.9364,25.01,85,100,7.32,US,2024-04-26
375,tralee,52.2704,-9.7026,7.15,95,100,2.15,IE,2024-04-26
376,malango,-2.9627,119.9001,25.87,74,18,1.17,ID,2024-04-26
377,naze,28.3667,129.4833,21.51,98,100,3.83,JP,2024-04-26
378,bubaque,11.2833,-15.8333,25.65,69,100,8.14,GW,2024-04-26
379,tofol,5.3248,163.0078,30.88,70,100,7.2,FM,2024-04-26
380,sinop,41.7711,34.8709,20.17,34,94,2.45,TR,2024-04-26
381,ulladulla,-35.35,150.4667,17.65,44,0,2.13,AU,2024-04-26
382,la ronge,55.1001,-105.2842,16.14,25,40,3.09,CA,2024-04-26
383,muynoq,43.7683,59.0214,15.74,83,66,4.5,UZ,2024-04-26
384,petropavlovsk-kamchatsky,53.0452,158.6483,10.33,74,75,5.36,RU,2024-04-26
385,al ghayzah,16.2079,52.176,27.09,76,15,3.68,YE,2024-04-26
386,severo-yeniseyskiy,60.3725,93.0408,-1.9,91,80,1.34,RU,2024-04-26
387,valparaiso,-33.0393,-71.6273,17.78,57,0,1.03,CL,2024-04-26
388,nueva guinea,11.6876,-84.4562,25.01,79,4,4.82,NI,2024-04-26
389,cafayate,-26.073,-65.9761,19.8,68,100,2.42,AR,2024-04-26
390,hammerfest,70.6634,23.6821,-2.75,80,4,0.0,NO,2024-04-26
391,nyurba,63.2842,118.3319,-4.91,82,98,2.08,RU,2024-04-26
392,isangel,-19.55,169.2667,28.06,69,40,2.06,VU,2024-04-26
393,muhos,64.808,25.9931,1.88,93,100,3.72,FI,2024-04-26
394,crane,31.3974,-102.3501,25.18,63,41,13.86,US,2024-04-26
395,tura,25.5198,90.2201,27.14,64,0,3.41,IN,2024-04-26
396,jieyang,23.5289,116.3642,20.96,96,100,4.45,CN,2024-04-26
397,tynda,55.1667,124.7167,-3.99,68,98,6.88,RU,2024-04-26
398,byron bay,-28.65,153.6167,20.95,69,23,4.98,AU,2024-04-26
399,lazarevskoye,43.9061,39.3331,22.01,37,99,3.92,RU,2024-04-26
400,vilhena,-12.7406,-60.1458,22.92,87,100,1.29,BR,2024-04-26
401,puerto madryn,-42.7692,-65.0385,16.7,32,0,10.48,AR,2024-04-26
402,rusape,-18.5278,32.1284,12.96,89,0,1.15,ZW,2024-04-26
403,aljezur,37.3191,-8.8033,12.47,86,19,3.95,PT,2024-04-26
404,batie,9.8833,-2.9167,28.96,61,99,2.43,BF,2024-04-26
405,petauke,-14.2426,31.3253,16.15,67,24,2.92,ZM,2024-04-26
406,vadso,70.0744,29.7487,2.49,86,100,3.09,NO,2024-04-26
407,daru,-9.0763,143.2092,27.7,84,100,8.58,PG,2024-04-26
408,port isabel,26.0734,-97.2086,27.04,84,100,9.26,US,2024-04-26
409,vila franca do campo,37.7167,-25.4333,18.27,99,84,2.34,PT,2024-04-26
410,cannonvale,-20.2833,148.7,26.99,66,81,6.25,AU,2024-04-26
411,bonthe,7.5264,-12.505,26.29,84,100,2.43,SL,2024-04-26
412,quatre cocos,-20.2078,57.7625,26.06,81,100,4.67,MU,2024-04-26
413,waingapu,-9.6567,120.2641,28.83,76,0,5.48,ID,2024-04-26
414,manggar,-2.8833,108.2667,29.51,77,82,1.43,ID,2024-04-26
415,hobyo,5.3505,48.5268,28.6,75,99,2.48,SO,2024-04-26
416,andovoranto,-18.95,49.1,23.4,89,77,2.13,MG,2024-04-26
417,kill devil hills,36.0307,-75.676,11.0,93,100,8.23,US,2024-04-26
418,yancheng,33.3856,120.1253,18.46,74,100,5.81,CN,2024-04-26
419,nabisar,25.0685,69.6419,25.02,79,0,7.25,PK,2024-04-26
420,klaksvik,62.2266,-6.589,4.51,85,100,10.69,FO,2024-04-26
421,manta,-0.95,-80.7333,26.88,83,40,2.06,EC,2024-04-26
422,grand-bassam,5.2118,-3.7388,29.98,84,8,3.8,CI,2024-04-26
423,namdrik,5.5994,168.1028,28.31,83,10,9.27,MH,2024-04-26
424,dalnegorsk,44.5604,135.5701,17.56,87,37,1.34,RU,2024-04-26
425,astrea,9.4983,-73.9759,26.13,89,100,1.85,CO,2024-04-26
426,boa vista,2.8197,-60.6733,23.53,92,100,1.45,BR,2024-04-26
427,bokoro,12.3807,17.0568,32.3,12,12,3.19,TD,2024-04-26
428,xingcheng,40.6167,120.7167,14.31,71,0,2.41,CN,2024-04-26
429,nuriootpa,-34.4833,139.0,16.25,48,16,3.03,AU,2024-04-26
430,urzhar,47.093,81.6294,4.03,33,17,4.13,KZ,2024-04-26
431,preobrazheniye,42.9019,133.9064,16.67,59,26,3.69,RU,2024-04-26
432,natal,-5.795,-35.2094,27.14,82,66,4.22,BR,2024-04-26
433,satun,6.8333,100.0,26.0,85,100,0.22,TH,2024-04-26
434,pont rouge,48.8833,-72.0825,1.16,64,8,2.67,CA,2024-04-26
435,holualoa,19.6228,-155.9522,24.91,84,75,5.66,US,2024-04-26
436,ano liosia,38.0833,23.7,16.25,63,70,2.57,GR,2024-04-26
437,zouerate,22.7187,-12.4521,25.36,46,96,5.58,MR,2024-04-26
438,poronaysk,49.2167,143.1167,10.95,64,21,2.53,RU,2024-04-26
439,sumbe,-11.2061,13.8437,26.37,93,90,2.76,AO,2024-04-26
440,nagqu,31.5,92.0,-0.56,48,100,1.23,CN,2024-04-26
441,maracaibo,10.6317,-71.6406,28.48,73,56,3.74,VE,2024-04-26
442,gobabis,-22.45,18.9667,19.13,27,0,4.79,NA,2024-04-26
443,el haouaria,37.05,11.0144,17.01,71,100,10.1,TN,2024-04-26
444,kununurra,-15.7667,128.7333,28.99,39,35,8.23,AU,2024-04-26
445,bei'an,24.5399,109.533,23.16,87,41,0.69,CN,2024-04-26
446,tamanrasset,22.785,5.5228,19.95,11,0,2.57,DZ,2024-04-26
447,auki,-8.7676,160.7034,29.33,78,88,1.86,SB,2024-04-26
448,reitz,-27.8014,28.4273,11.35,88,0,2.92,ZA,2024-04-26
449,zyrya,40.3661,50.2917,14.05,71,0,3.01,AZ,2024-04-26
450,zavoronezhskoye,52.8801,40.5526,16.64,61,100,8.04,RU,2024-04-26
451,dubna,56.7333,37.1667,11.68,83,100,2.14,RU,2024-04-26
452,vokhtoga,58.8147,41.0461,10.52,97,100,1.72,RU,2024-04-26
453,sotouboua,8.5667,0.9833,27.02,79,3,2.16,TG,2024-04-26
454,tharyarwady,17.65,95.8,29.68,69,5,1.93,MM,2024-04-26
455,yoko,5.5333,12.3167,20.13,95,73,1.01,CM,2024-04-26
456,koryazhma,61.3143,47.1691,7.73,92,74,3.22,RU,2024-04-26
457,nova sintra,14.8667,-24.7167,23.08,83,8,8.04,CV,2024-04-26
458,cherdyn',60.403,56.4787,-4.53,100,60,1.54,RU,2024-04-26
459,las cabezas de san juan,36.9838,-5.9393,15.5,75,0,1.88,ES,2024-04-26
460,bodaybo,57.8506,114.1933,-0.69,75,100,3.25,RU,2024-04-26
461,spring creek,40.7266,-115.5859,10.83,72,100,3.23,US,2024-04-26
462,pasto,1.2136,-77.2811,11.59,95,92,1.99,CO,2024-04-26
463,khabarovsk,48.4808,135.0928,16.01,33,0,11.18,RU,2024-04-26
464,port saint john's,-31.6229,29.5448,20.32,81,100,4.21,ZA,2024-04-26
465,san luis de la loma,17.2706,-100.8939,27.49,72,10,4.03,MX,2024-04-26
466,sanghar,26.0466,68.9481,26.17,72,0,7.42,PK,2024-04-26
467,constitucion,-35.3333,-72.4167,12.83,87,100,0.56,CL,2024-04-26
468,allapalli,19.4167,80.0667,31.89,36,43,1.5,IN,2024-04-26
469,san carlos,9.6612,-68.5827,28.14,63,96,1.69,VE,2024-04-26
470,shumikha,55.2261,63.2961,4.42,62,100,1.43,RU,2024-04-26
471,gardez,33.5974,69.2259,9.86,60,100,1.7,AF,2024-04-26
472,livingstonia,-10.606,34.1063,18.39,84,100,1.02,MW,2024-04-26
473,ipsala,40.9212,26.3827,12.89,85,5,3.37,TR,2024-04-26
474,acapulco de juarez,16.8634,-99.8901,28.9,70,0,6.69,MX,2024-04-26
475,salinopolis,-0.6136,-47.3561,25.81,92,100,4.72,BR,2024-04-26
476,phek,25.6667,94.5,19.54,39,0,0.97,IN,2024-04-26
477,fale old settlement,-9.3852,-171.2468,29.37,75,66,5.16,TK,2024-04-26
478,inhambane,-23.865,35.3833,24.61,68,96,3.38,MZ,2024-04-26
479,callao,-12.0667,-77.15,24.29,78,0,4.12,PE,2024-04-26
480,selfoss,63.9331,-20.9971,5.94,75,77,3.33,IS,2024-04-26
481,taro,-8.3862,115.28,24.0,91,100,0.38,ID,2024-04-26
482,tha khanon,9.0302,98.9529,30.57,64,57,0.42,TH,2024-04-26
483,utica,43.1009,-75.2327,8.06,60,0,1.66,US,2024-04-26
484,punta del este,-34.9667,-54.95,16.06,86,58,2.68,UY,2024-04-26
485,petrovsk-zabaykal'skiy,51.273,108.843,2.34,52,96,5.0,RU,2024-04-26
486,kenai,60.5544,-151.2583,9.05,57,100,3.09,US,2024-04-26
487,turochak,52.2576,87.1224,-0.73,49,11,1.17,RU,2024-04-26
488,wusong,30.95,117.7833,23.28,75,0,2.26,CN,2024-04-26
489,rosso,16.4986,-15.8153,24.99,46,28,7.1,SN,2024-04-26
490,as sulayyil,20.4607,45.5779,27.14,12,14,3.34,SA,2024-04-26
491,port douglas,-16.4833,145.4667,26.42,70,39,5.31,AU,2024-04-26
492,pisco,-13.7,-76.2167,21.03,83,100,3.6,PE,2024-04-26
493,oppdal,62.5943,9.6912,-4.6,92,60,4.37,NO,2024-04-26
494,villamontes,-21.25,-63.5,25.15,61,94,1.83,BO,2024-04-26
495,nova vicosa,-17.8919,-39.3719,25.24,81,7,3.13,BR,2024-04-26
496,kismayo,-0.3582,42.5454,26.91,85,100,4.24,SO,2024-04-26
497,tommot,58.9564,126.2925,-5.69,73,100,3.78,RU,2024-04-26
498,guerrero negro,27.9769,-114.0611,17.44,68,0,9.46,MX,2024-04-26
499,salalah,17.0151,54.0924,28.05,74,0,2.06,OM,2024-04-26
500,waren,53.5167,12.6833,2.23,93,100,2.77,DE,2024-04-26
501,huarmey,-10.0681,-78.1522,21.06,84,64,3.92,PE,2024-04-26
502,floro,61.5996,5.0328,3.98,81,94,3.6,NO,2024-04-26
503,kotlas,61.2611,46.6556,7.81,81,95,4.47,RU,2024-04-26
504,al burayqah,30.4062,19.5739,15.94,63,0,4.26,LY,2024-04-26
505,xichang,27.8964,102.2634,16.19,65,4,0.73,CN,2024-04-26
506,piti village,13.4626,144.6933,31.49,70,20,8.75,GU,2024-04-26
507,letterkenny,54.95,-7.7333,1.16,90,7,1.29,IE,2024-04-26
508,monywa,22.1167,95.1333,33.42,26,0,1.73,MM,2024-04-26
509,dunedin,-45.8742,170.5036,9.89,54,13,3.13,NZ,2024-04-26
510,kalkaman,51.9525,76.0211,3.86,55,100,3.1,KZ,2024-04-26
511,kushiro,42.975,144.3747,17.53,59,20,3.09,JP,2024-04-26
512,el calafate,-50.3408,-72.2768,2.48,66,3,4.93,AR,2024-04-26
513,la punta,-33.1837,-66.3127,14.46,88,85,3.0,AR,2024-04-26
514,puerto carreno,6.189,-67.4859,26.31,83,73,1.72,CO,2024-04-26
515,kuanda,56.3161,116.0806,0.21,47,98,3.23,RU,2024-04-26
516,naracoorte,-36.9579,140.7383,14.16,53,93,3.72,AU,2024-04-26
517,hami,42.8,93.45,16.17,36,97,3.52,CN,2024-04-26
518,hashtrud,37.4779,47.0508,10.62,44,0,1.34,IR,2024-04-26
519,cidreira,-30.1811,-50.2056,21.18,81,43,8.96,BR,2024-04-26
520,bonawon,9.134,122.9193,29.89,64,7,1.31,PH,2024-04-26
521,rizokarpaso,35.6,34.375,20.45,75,98,5.82,CY,2024-04-26
522,qamdo,31.1667,97.2333,3.36,49,92,2.68,CN,2024-04-26
523,nuku'alofa,-21.1333,-175.2,28.19,89,75,3.09,TO,2024-04-26
524,chigorodo,7.6664,-76.6811,23.89,100,40,1.54,CO,2024-04-26
525,piripiri,-4.2733,-41.7769,23.29,92,100,1.66,BR,2024-04-26
526,hasaki,35.7333,140.8333,22.38,79,99,3.87,JP,2024-04-26
527,powell river,49.8496,-124.5361,10.74,100,100,2.57,CA,2024-04-26
528,nantucket,41.2835,-70.0995,4.44,73,0,5.7,US,2024-04-26
529,tondon,10.3667,-13.35,22.18,91,40,0.83,GN,2024-04-26
530,whakatane,-37.9585,176.9854,21.6,83,99,2.24,NZ,2024-04-26
531,las tablas,7.7667,-80.2833,25.65,99,100,7.17,PA,2024-04-26
532,rio grande,-32.035,-52.0986,18.3,79,0,6.84,BR,2024-04-26
533,konstantinovka,49.6167,127.9833,8.58,43,100,8.21,RU,2024-04-26
534,errachidia,31.9275,-4.4285,21.03,13,0,10.8,MA,2024-04-26
535,yangambi,0.8102,24.4336,22.65,91,99,1.06,CD,2024-04-26
536,nikki,9.9401,3.2108,27.26,65,100,3.47,BJ,2024-04-26
537,afif,23.9065,42.9172,23.32,15,100,4.86,SA,2024-04-26
538,ahuacatlan,21.05,-104.4833,26.39,20,100,2.28,MX,2024-04-26
539,corry,41.9203,-79.6403,5.6,74,0,3.49,US,2024-04-26
540,gardnerville ranchos,38.8882,-119.7413,13.44,43,0,11.18,US,2024-04-26
541,port macquarie,-31.4333,152.9167,22.16,54,5,4.99,AU,2024-04-26
542,minot,48.2325,-101.2963,24.12,31,0,4.63,US,2024-04-26
543,isfahan,32.6572,51.6776,6.8,55,30,0.93,IR,2024-04-26
544,dhilwan,31.5169,75.35,23.39,29,100,1.15,IN,2024-04-26
545,bengkulu,-3.8004,102.2655,25.3,89,100,2.08,ID,2024-04-26
546,tazacorte,28.629,-17.9293,18.54,78,40,4.12,ES,2024-04-26
547,marsa alam,25.0757,34.8918,28.14,34,24,1.42,EG,2024-04-26
548,tangalle,6.024,80.7911,25.09,91,100,2.55,LK,2024-04-26
549,broken hill,-31.95,141.4333,14.38,51,0,5.51,AU,2024-04-26
550,maisi,43.0395,41.2621,18.76,39,75,3.21,GE,2024-04-26
551,kish,26.5578,54.0194,23.15,94,0,2.06,IR,2024-04-26
552,amga,60.8953,131.9608,-6.21,72,100,3.79,RU,2024-04-26
553,kerikeri,-35.2268,173.9474,19.01,75,100,3.61,NZ,2024-04-26
554,yantzaza,-3.8278,-78.7594,22.01,99,26,0.55,EC,2024-04-26
555,ko pha ngan,9.7578,100.0291,27.38,75,100,3.51,TH,2024-04-26
556,neiafu,-18.65,-173.9833,29.38,79,75,3.6,TO,2024-04-26
557,toliara,-23.35,43.6667,22.28,85,0,2.39,MG,2024-04-26
558,languyan,5.2618,120.0807,30.15,68,47,2.95,PH,2024-04-26
559,kawambwa,-9.7915,29.0791,16.13,78,97,2.43,ZM,2024-04-26
