City_ID,City,Lat,Lng,Max Temp,Humidity,Cloudiness,Wind Speed,Country,Date
0,adamstown,-25.066,-130.1015,22.95,89,2,9.89,PN,2024-04-25
1,rongelap,11.1635,166.8941,27.31,83,100,8.76,MH,2024-04-25
2,taulaga,-11.0553,-171.0883,29.53,74,26,5.27,AS,2024-04-25
3,ribeira grande,38.5167,-28.7,15.43,83,7,4.02,PT,2024-04-25
4,singkil,-7.9855,111.4161,30.06,75,46,2.39,ID,2024-04-25
5,iqaluit,63.7506,-68.5145,-9.15,72,100,5.66,CA,2024-04-25
6,barra dos coqueiros,-10.9089,-37.0386,27.01,94,40,2.06,BR,2024-04-25
7,san juan de la rambla,28.3928,-16.6502,20.95,63,0,3.32,ES,2024-04-25
8,alekseyevskoye,55.3071,50.1135,9.93,65,100,0.87,RU,2024-04-25
9,port moresby,-9.4431,147.1797,32.68,66,40,2.57,PG,2024-04-25
10,kailua-kona,19.6406,-155.9956,27.98,79,100,4.63,US,2024-04-25
11,imperatriz,-5.5264,-47.4917,23.81,95,41,0.72,BR,2024-04-25
12,tiksi,71.6872,128.8694,-10.49,82,100,6.59,RU,2024-04-25
13,newman,37.3138,-121.0208,19.13,66,83,2.27,US,2024-04-25
14,blackmans bay,-43.0167,147.3167,14.07,62,88,3.13,AU,2024-04-25
15,mandalay,21.9747,96.0836,36.22,35,43,4.41,MM,2024-04-25
16,pahrump,36.2083,-115.9839,24.03,21,0,2.68,US,2024-04-25
17,puerto natales,-51.7236,-72.4875,2.25,100,100,1.03,CL,2024-04-25
18,flying fish cove,-10.4217,105.6791,27.82,89,75,5.66,CX,2024-04-25
19,san patricio,28.017,-97.5169,24.35,88,31,5.78,US,2024-04-25
20,waitangi,-43.9535,-176.5597,16.01,88,99,3.13,NZ,2024-04-25
21,grytviken,-54.2811,-36.5092,-2.15,78,23,4.91,GS,2024-04-25
22,holmsund,63.706,20.3641,-0.03,86,100,2.24,SE,2024-04-25
23,albany,42.6001,-73.9662,4.21,74,3,0.89,US,2024-04-25
24,mikumi,-7.4041,36.9831,20.37,91,88,0.88,TZ,2024-04-25
25,isafjordur,66.0755,-23.124,2.7,84,16,1.31,IS,2024-04-25
26,papatowai,-46.5619,169.4708,13.11,65,24,2.96,NZ,2024-04-25
27,iskateley,67.6803,53.1512,-6.66,82,10,5.81,RU,2024-04-25
28,palikir - national government center,6.9248,158.1611,30.47,79,100,4.63,FM,2024-04-25
29,ushuaia,-54.8,-68.3,7.81,61,0,1.54,AR,2024-04-25
30,hirara,24.8,125.2833,25.92,94,75,6.69,JP,2024-04-25
31,longyearbyen,78.2186,15.6401,-2.09,74,20,1.54,SJ,2024-04-25
32,bethel,41.3712,-73.414,13.2,50,0,4.63,US,2024-04-25
33,thompson,55.7435,-97.8558,8.09,34,20,2.06,CA,2024-04-25
34,port-aux-francais,-49.35,70.2167,4.39,66,72,8.33,TF,2024-04-25
35,gargalianoi,37.0667,21.6333,12.97,75,56,3.41,GR,2024-04-25
36,mirnyy,62.5353,113.9611,-6.54,82,100,4.02,RU,2024-04-25
37,al jawf,29.5,38.75,22.38,17,0,2.36,SA,2024-04-25
38,tazovsky,67.4667,78.7,-6.19,96,99,2.13,RU,2024-04-25
39,yellowknife,62.456,-114.3525,5.31,72,75,5.66,CA,2024-04-25
40,lerwick,60.1545,-1.1494,5.0,68,11,7.18,GB,2024-04-25
41,salaqi,40.5414,110.5108,23.29,13,20,5.55,CN,2024-04-25
42,itamaraca,-7.7478,-34.8256,29.03,77,15,3.06,BR,2024-04-25
43,biharamulo,-2.6319,31.3089,16.46,97,96,0.84,TZ,2024-04-25
44,nemuro,43.3236,145.575,6.48,98,100,11.07,JP,2024-04-25
45,ust-nera,64.5667,143.2,2.55,99,98,1.87,RU,2024-04-25
46,margaret river,-33.95,115.0667,19.11,42,100,5.35,AU,2024-04-25
47,sitka,57.0531,-135.33,9.94,76,40,4.63,US,2024-04-25
48,polyarnyy,69.1989,33.4478,-2.36,93,100,2.51,RU,2024-04-25
49,utrik,11.2278,169.8474,27.19,79,92,8.31,MH,2024-04-25
50,hawaiian paradise park,19.5933,-154.9731,26.52,79,100,4.12,US,2024-04-25
51,mahina,-17.5065,-149.489,29.87,74,20,2.57,PF,2024-04-25
52,port elizabeth,-33.918,25.5701,17.28,82,20,6.17,ZA,2024-04-25
53,st. john's,47.5649,-52.7093,10.66,97,100,12.86,CA,2024-04-25
54,hovd,48.0056,91.6419,0.89,36,44,3.54,MN,2024-04-25
55,dudinka,69.4058,86.1778,-7.4,89,22,4.92,RU,2024-04-25
56,qurayyat,31.3318,37.3428,19.1,22,0,0.0,SA,2024-04-25
57,edinburgh of the seven seas,-37.0676,-12.3116,17.11,90,60,8.26,SH,2024-04-25
58,whitehorse,60.7161,-135.0538,13.43,22,40,2.57,CA,2024-04-25
59,lebu,-37.6167,-73.65,13.86,91,99,5.01,CL,2024-04-25
60,botou,38.0667,116.5667,27.53,32,75,6.67,CN,2024-04-25
61,junin,-34.5838,-60.9433,11.09,67,53,2.34,AR,2024-04-25
62,keta,5.9179,0.9879,28.12,80,43,3.53,GH,2024-04-25
63,ashburton,-37.8626,145.0794,16.76,63,100,1.34,AU,2024-04-25
64,ndele,8.4109,20.6473,25.5,71,100,4.46,CF,2024-04-25
65,sanctuary point,-35.1114,150.629,19.0,49,1,3.36,AU,2024-04-25
66,callao,-12.0667,-77.15,22.62,78,20,4.63,PE,2024-04-25
67,novodvinsk,64.4165,40.8122,0.86,94,100,1.25,RU,2024-04-25
68,ar ruways,24.1103,52.7306,27.24,29,0,4.3,AE,2024-04-25
69,keflavik,64.0049,-22.5624,6.95,87,75,2.57,IS,2024-04-25
70,pisco,-13.7,-76.2167,21.03,78,0,2.06,PE,2024-04-25
71,avarua,-21.2078,-159.775,26.03,73,75,3.09,CK,2024-04-25
72,goba,7.0167,39.9833,11.48,91,97,0.9,ET,2024-04-25
73,essaouira,31.5125,-9.77,16.72,55,0,3.6,MA,2024-04-25
74,kiruna,67.8557,20.2251,-4.49,93,100,3.09,SE,2024-04-25
75,jamestown,42.097,-79.2353,4.77,85,100,3.09,US,2024-04-25
76,rabo de peixe,37.8,-25.5833,14.73,72,75,4.12,PT,2024-04-25
77,georgetown,5.4112,100.3354,33.86,68,20,2.57,MY,2024-04-25
78,cusseta,32.3054,-84.7727,18.59,87,36,1.88,US,2024-04-25
79,zhob,31.3411,69.4481,22.0,26,13,0.44,PK,2024-04-25
80,port de pollenca,39.9075,3.0814,11.36,58,100,1.18,ES,2024-04-25
81,kodiak,57.79,-152.4072,4.73,87,100,4.63,US,2024-04-25
82,fort bragg,35.139,-79.006,17.91,75,40,0.0,US,2024-04-25
83,luderitz,-26.6481,15.1594,16.46,67,69,5.9,,2024-04-25
84,hamilton,39.1834,-84.5333,7.69,75,0,6.17,US,2024-04-25
85,sittwe,20.15,92.9,30.4,69,1,2.24,MM,2024-04-25
86,college,64.8569,-147.8028,16.18,33,75,2.06,US,2024-04-25
87,punta arenas,-53.15,-70.9167,5.06,87,75,1.54,CL,2024-04-25
88,meulaboh,4.1363,96.1285,29.2,74,100,0.56,ID,2024-04-25
89,karratha,-20.7377,116.8463,31.14,27,33,7.76,AU,2024-04-25
90,carrizo springs,28.5219,-99.8606,28.34,65,40,7.2,US,2024-04-25
91,wailua homesteads,22.0669,-159.378,27.24,83,100,8.23,US,2024-04-25
92,dhuusamarreeb,5.535,46.3861,27.42,78,99,4.41,SO,2024-04-25
93,argo,37.6333,22.7333,14.33,49,99,2.07,GR,2024-04-25
94,muroto-misakicho,33.2833,134.15,19.06,77,74,4.45,JP,2024-04-25
95,anadyr,64.75,177.4833,-2.72,92,100,6.0,RU,2024-04-25
96,igarka,67.4667,86.5833,-7.21,90,79,3.58,RU,2024-04-25
97,namdrik,5.5994,168.1028,27.54,82,94,6.81,MH,2024-04-25
98,susuman,62.7833,148.1667,-1.68,90,91,1.34,RU,2024-04-25
99,aasiaat,68.7098,-52.8699,-3.5,98,90,2.92,GL,2024-04-25
100,vorgashor,67.5833,63.95,-11.38,87,95,1.54,RU,2024-04-25
101,monze,-16.2833,27.4833,16.0,51,0,1.4,ZM,2024-04-25
102,dniprorudne,47.3817,34.9765,13.24,83,100,1.21,UA,2024-04-25
103,nova sintra,14.8667,-24.7167,22.95,80,88,6.46,CV,2024-04-25
104,kwang binh,17.4833,106.6,35.32,48,10,2.02,VN,2024-04-25
105,acarau,-2.8856,-40.12,25.93,86,73,3.82,BR,2024-04-25
106,weno,7.4515,151.8468,30.97,74,100,3.6,FM,2024-04-25
107,qaqortoq,60.7167,-46.0333,-0.58,85,55,2.71,GL,2024-04-25
108,invercargill,-46.4,168.35,15.57,54,1,3.58,NZ,2024-04-25
109,olonkinbyen,70.9221,-8.7187,-1.6,82,8,3.52,SJ,2024-04-25
110,new norfolk,-42.7826,147.0587,14.72,69,99,3.39,AU,2024-04-25
111,homer,59.6425,-151.5483,8.94,62,40,2.57,US,2024-04-25
112,san fernando,15.0286,120.6898,33.85,45,74,2.19,PH,2024-04-25
113,puerto ayora,-0.7393,-90.3518,25.31,95,6,2.35,EC,2024-04-25
114,lata,40.1629,-8.3327,11.71,88,97,1.17,PT,2024-04-25
115,antofagasta,-23.65,-70.4,17.6,86,96,3.23,CL,2024-04-25
116,poyang,28.9924,116.6675,23.37,78,100,2.72,CN,2024-04-25
117,maintirano,-18.0667,44.0167,24.15,90,12,3.75,MG,2024-04-25
118,rikaze,29.25,88.8833,8.64,21,0,1.81,CN,2024-04-25
119,itoman,26.1247,127.6694,25.01,81,75,4.12,JP,2024-04-25
120,mezhdurechenskiy,59.6,65.9333,-0.26,58,97,4.29,RU,2024-04-25
121,wotje,9.4543,170.2367,27.87,78,94,8.47,MH,2024-04-25
122,udachny,66.4167,112.4,-5.95,80,100,8.3,RU,2024-04-25
123,cova figueira,14.8905,-24.2934,17.81,76,58,1.93,CV,2024-04-25
124,leer,53.2316,7.461,4.44,94,100,3.95,DE,2024-04-25
125,sijunjung,-0.6876,100.9537,31.22,62,89,0.67,ID,2024-04-25
126,jaguarao,-32.5661,-53.3758,12.98,80,79,1.18,BR,2024-04-25
127,illizi,26.4833,8.4667,18.89,25,0,1.68,DZ,2024-04-25
128,petropavlovsk-kamchatsky,53.0452,158.6483,11.33,35,75,7.0,RU,2024-04-25
129,yemetsk,63.4721,41.7941,-0.82,92,100,0.88,RU,2024-04-25
130,aykhal,66.0,111.5,-7.34,87,100,10.07,RU,2024-04-25
131,filipstad,59.7124,14.1683,-0.98,96,70,1.12,SE,2024-04-25
132,badger,64.8,-147.5333,16.14,31,40,2.06,US,2024-04-25
133,hadibu,12.65,54.0333,27.62,75,55,2.05,YE,2024-04-25
134,bilibino,68.0546,166.4372,-6.78,72,15,0.92,RU,2024-04-25
135,uturoa,-16.7333,-151.4333,28.34,72,0,2.21,PF,2024-04-25
136,varberg,57.1056,12.2508,1.14,75,100,3.04,SE,2024-04-25
137,pangai,-19.8,-174.35,30.06,79,40,4.12,TO,2024-04-25
138,bredasdorp,-34.5322,20.0403,15.28,83,78,1.18,ZA,2024-04-25
139,punta del este,-34.9667,-54.95,14.37,79,75,1.03,UY,2024-04-25
140,carutapera,-1.195,-46.02,25.36,91,97,1.94,BR,2024-04-25
141,tura,25.5198,90.2201,33.48,27,0,3.83,IN,2024-04-25
142,ajdabiya,30.7554,20.2263,17.25,46,97,1.63,LY,2024-04-25
143,malvan,16.0667,73.4667,28.68,69,90,0.38,IN,2024-04-25
144,tsengel,49.4783,100.8894,0.4,50,100,5.75,MN,2024-04-25
145,chibougamau,49.9168,-74.3659,-9.21,67,0,3.09,CA,2024-04-25
146,ixtapa,20.7,-105.2,24.57,88,0,1.54,MX,2024-04-25
147,coacoatzintla,19.6333,-96.9333,18.26,92,35,1.62,MX,2024-04-25
148,nadi,-17.8,177.4167,31.0,66,20,4.63,FJ,2024-04-25
149,montereau-fault-yonne,48.3833,2.95,4.25,88,0,1.28,FR,2024-04-25
150,puerto ayacucho,5.6639,-67.6236,24.49,92,100,1.81,VE,2024-04-25
151,stanley,54.868,-1.6985,4.01,88,0,5.66,GB,2024-04-25
152,talnakh,69.4865,88.3972,-7.66,91,91,2.3,RU,2024-04-25
153,harnai,30.1005,67.9374,26.04,20,70,0.68,PK,2024-04-25
154,vadso,70.0744,29.7487,1.49,86,100,4.12,NO,2024-04-25
155,pimentel,-6.8367,-79.9342,21.16,78,75,4.12,PE,2024-04-25
156,tenenkou,14.4572,-4.9169,33.24,13,98,5.02,ML,2024-04-25
157,chita,52.0333,113.55,4.94,33,40,8.0,RU,2024-04-25
158,nar'yan-mar,67.6713,53.087,-6.61,82,10,5.81,RU,2024-04-25
159,the pas,53.8251,-101.2541,13.01,35,0,4.63,CA,2024-04-25
160,al hawatah,13.4167,34.6333,29.55,13,8,2.06,SD,2024-04-25
161,okha,53.5739,142.9478,11.81,63,24,6.71,RU,2024-04-25
162,nouadhibou,20.931,-17.0347,18.64,86,39,6.45,MR,2024-04-25
163,viqueque,-8.8673,126.3658,30.48,64,57,3.57,TL,2024-04-25
164,dibba al-hisn,25.6196,56.2729,18.1,46,0,1.33,AE,2024-04-25
165,port mathurin,-19.6833,63.4167,26.59,69,100,7.73,MU,2024-04-25
166,haimen,23.1935,116.6142,19.94,92,100,4.49,CN,2024-04-25
167,quellon,-43.1167,-73.6167,10.66,85,61,7.03,CL,2024-04-25
168,taroa,8.7058,171.2275,28.05,77,79,8.77,MH,2024-04-25
169,puerto san jose,13.9256,-90.8244,29.33,73,12,2.34,GT,2024-04-25
170,bhimunipatnam,17.8833,83.4333,30.73,58,5,3.9,IN,2024-04-25
171,east london,-33.0153,27.9116,20.13,75,78,4.85,ZA,2024-04-25
172,haiku-pauwela,20.9219,-156.3051,25.12,78,40,10.8,US,2024-04-25
173,budva,42.2864,18.84,9.42,96,100,0.51,ME,2024-04-25
174,bereznik,62.8551,42.7072,-1.03,92,30,0.41,RU,2024-04-25
175,hermanus,-34.4187,19.2345,13.22,85,75,1.7,ZA,2024-04-25
176,juneau,58.3019,-134.4197,11.0,84,40,6.69,US,2024-04-25
177,ust'-ilimsk,58.0006,102.6619,0.24,92,100,3.58,RU,2024-04-25
178,ilulissat,69.2167,-51.1,0.01,100,100,3.09,GL,2024-04-25
179,alice springs,-23.7,133.8833,19.75,30,0,6.17,AU,2024-04-25
180,mermoz boabab,14.7065,-17.4758,21.31,85,87,6.84,SN,2024-04-25
181,shiogama,38.3167,141.0333,21.99,45,2,9.51,JP,2024-04-25
182,saint stephens,35.7646,-81.2731,14.66,84,19,2.06,US,2024-04-25
183,ar rutbah,33.0381,40.2848,20.55,27,0,0.45,IQ,2024-04-25
184,kisanga,-7.4362,37.7034,22.39,97,99,1.15,TZ,2024-04-25
185,berezovyy,51.6667,135.7,18.79,37,22,2.77,RU,2024-04-25
186,mana,5.6592,-53.7767,26.56,75,96,4.16,GF,2024-04-25
187,demba,-5.51,22.2667,20.73,99,100,0.87,CD,2024-04-25
188,revda,56.801,59.9303,0.07,93,100,3.81,RU,2024-04-25
189,arteche,12.2645,125.4048,30.59,58,96,3.83,PH,2024-04-25
190,afaahiti,-17.75,-149.2833,28.93,72,1,1.79,PF,2024-04-25
191,adelia maria,-33.6315,-64.021,14.24,62,71,0.89,AR,2024-04-25
192,montrose,38.4166,-108.2673,15.76,20,0,5.74,US,2024-04-25
193,taroudant,30.4703,-8.877,14.16,83,0,0.85,MA,2024-04-25
194,hithadhoo,-0.6,73.0833,29.34,70,100,2.67,MV,2024-04-25
195,tralee,52.2704,-9.7026,8.47,88,95,1.97,IE,2024-04-25
196,yorkton,51.2167,-102.4677,15.91,25,20,4.12,CA,2024-04-25
197,buka,40.8108,69.1986,21.53,42,66,2.18,UZ,2024-04-25
198,bashtanka,47.4072,32.4387,11.17,90,85,1.51,UA,2024-04-25
199,podporozh'ye,60.9112,34.1706,0.86,85,99,3.53,RU,2024-04-25
200,tres lagoas,-20.7511,-51.6783,22.54,67,42,1.8,BR,2024-04-25
201,timbuktu,16.7735,-3.0074,31.46,15,0,5.18,ML,2024-04-25
202,dok kham tai,19.1624,99.9934,38.15,27,0,1.07,TH,2024-04-25
203,mosjoen,65.836,13.1908,1.29,93,40,0.0,NO,2024-04-25
204,kupang,-10.1667,123.5833,34.32,66,20,6.69,ID,2024-04-25
205,remire-montjoly,4.9167,-52.2667,26.02,94,75,1.54,GF,2024-04-25
206,sao felix do xingu,-6.6447,-51.995,22.65,98,65,0.52,BR,2024-04-25
207,bikenibeu village,1.3673,173.1241,30.98,79,75,3.6,KI,2024-04-25
208,muana,-1.5283,-49.2167,24.79,96,100,1.38,BR,2024-04-25
209,enewetak,11.3474,162.3373,27.74,80,84,7.91,MH,2024-04-25
210,lihue,21.9789,-159.3672,27.58,77,100,8.23,US,2024-04-25
211,mukalla,14.5425,49.1242,26.85,68,6,1.64,YE,2024-04-25
212,saipan,15.1355,145.701,32.39,58,40,7.72,MP,2024-04-25
213,caarapo,-22.6342,-54.8222,22.5,59,40,1.62,BR,2024-04-25
214,serowe,-22.3833,26.7167,18.06,55,0,1.0,BW,2024-04-25
215,kerikeri,-35.2268,173.9474,20.51,72,100,3.26,NZ,2024-04-25
216,saint-philippe,-21.3585,55.7679,22.77,85,36,3.14,RE,2024-04-25
217,padang,-0.9492,100.3543,29.03,70,22,1.87,ID,2024-04-25
218,ad dabbah,18.05,30.95,28.65,17,0,2.59,SD,2024-04-25
219,korla,41.7597,86.1469,22.57,20,94,4.67,CN,2024-04-25
220,cherniakhiv,50.4565,28.6702,5.83,92,57,2.34,UA,2024-04-25
221,santa elena de uairen,4.6167,-61.1333,20.45,89,100,0.6,VE,2024-04-25
222,berea,41.3662,-81.8543,4.51,75,100,5.14,US,2024-04-25
223,tionk essil,12.7856,-16.5217,23.07,68,100,5.03,SN,2024-04-25
224,la sarre,48.8002,-79.1996,-8.63,94,40,1.4,CA,2024-04-25
225,mount pearl,47.5166,-52.7813,10.19,98,100,12.86,CA,2024-04-25
226,kapuskasing,49.4169,-82.4331,-2.95,59,40,2.06,CA,2024-04-25
227,palmer,42.1584,-72.3287,7.23,53,0,7.72,US,2024-04-25
228,puerto cortez,15.8333,-87.95,28.19,87,43,3.69,HN,2024-04-25
229,queenstown,-31.8976,26.8753,13.65,85,81,0.5,ZA,2024-04-25
230,saldanha,-33.0117,17.9442,13.03,91,71,4.39,ZA,2024-04-25
231,ilinge,-31.9768,27.0427,14.98,78,98,0.35,ZA,2024-04-25
232,kununurra,-15.7667,128.7333,33.99,43,9,5.14,AU,2024-04-25
233,badiyah,22.45,58.8,26.02,68,0,3.03,OM,2024-04-25
234,novosergiyevka,52.0934,53.6528,12.59,94,68,3.37,RU,2024-04-25
235,ornskoldsvik,63.2909,18.7153,-1.47,100,100,2.57,SE,2024-04-25
236,portland,45.5234,-122.6762,15.97,67,100,2.57,US,2024-04-25
237,fengxiang,47.5833,130.8333,20.72,41,45,9.12,CN,2024-04-25
238,kingman,35.1894,-114.053,24.71,12,20,9.26,US,2024-04-25
239,nha trang,12.25,109.1833,34.0,53,64,3.46,VN,2024-04-25
240,ratchaburi,13.5833,99.5333,34.98,30,47,0.72,TH,2024-04-25
241,west island,-12.1568,96.8225,27.99,83,75,7.2,CC,2024-04-25
242,mantua,45.1667,10.7833,8.53,90,77,0.45,IT,2024-04-25
243,arica,-18.475,-70.3042,20.75,77,0,1.54,CL,2024-04-25
244,kargasok,59.0556,80.8572,-2.39,81,12,4.14,RU,2024-04-25
245,arkhangel'sk,64.5401,40.5433,1.06,100,100,0.0,RU,2024-04-25
246,antsiranana,-12.2787,49.2917,25.62,79,99,5.33,MG,2024-04-25
247,princeville,45.7668,-61.2985,4.95,96,40,0.0,CA,2024-04-25
248,verdun,49.25,5.3333,-0.97,95,40,1.81,FR,2024-04-25
249,troitskoye,52.9821,84.6757,0.09,51,62,1.7,RU,2024-04-25
250,ubari,26.5921,12.7805,19.4,26,0,4.57,LY,2024-04-25
251,as saff,29.5647,31.2811,24.62,38,97,3.59,EG,2024-04-25
252,port alfred,-33.5906,26.891,17.32,90,99,0.45,ZA,2024-04-25
253,banfora,10.6333,-4.7667,27.36,67,100,1.67,BF,2024-04-25
254,orange cove,36.6244,-119.3137,18.67,78,0,3.6,US,2024-04-25
255,anloga,5.7947,0.8973,28.56,81,54,3.72,GH,2024-04-25
256,taoudenni,22.6783,-3.9836,29.4,14,0,4.21,ML,2024-04-25
257,cerasu,45.3167,26.0333,7.96,84,100,2.77,RO,2024-04-25
258,klyuchi,52.2667,79.1667,2.28,45,3,4.88,RU,2024-04-25
259,cidreira,-30.1811,-50.2056,17.4,71,72,2.9,BR,2024-04-25
260,kaluga,54.5,35.5,10.63,86,94,6.49,RU,2024-04-25
261,la junta,37.985,-103.5438,21.16,52,0,7.2,US,2024-04-25
262,buguruslan,53.6554,52.442,11.41,86,100,2.81,RU,2024-04-25
263,mossel bay,-34.1831,22.146,13.96,81,90,2.67,ZA,2024-04-25
264,rio grande,-32.035,-52.0986,11.64,68,100,1.78,BR,2024-04-25
265,ambovombe,-25.1667,46.0833,20.88,93,11,3.85,MG,2024-04-25
266,colonia,50.9333,6.95,4.98,89,75,4.63,DE,2024-04-25
267,hilo,19.7297,-155.09,25.85,78,100,4.12,US,2024-04-25
268,bogale,16.2833,95.4,33.91,47,0,3.26,MM,2024-04-25
269,south lake tahoe,38.9332,-119.9844,12.37,62,0,2.57,US,2024-04-25
270,chitipa,-9.7024,33.2697,16.31,98,70,1.59,MW,2024-04-25
271,al buraymi,24.2509,55.7931,22.68,38,0,4.12,OM,2024-04-25
272,myeik,12.4333,98.6,31.26,65,41,3.35,MM,2024-04-25
273,laguna,38.421,-121.4238,18.51,63,20,4.12,US,2024-04-25
274,dabai,11.4765,5.2063,29.51,47,30,4.69,NG,2024-04-25
275,merizo village,13.2658,144.6691,31.31,78,33,7.23,GU,2024-04-25
276,aleksandrovsk,59.158,57.5624,1.56,89,99,4.63,RU,2024-04-25
277,bandar lampung,-5.4254,105.258,30.64,70,43,1.72,ID,2024-04-25
278,shimoda,34.6667,138.95,22.2,62,29,8.24,JP,2024-04-25
279,gnarrenburg,53.3833,9.0,3.83,93,86,0.6,DE,2024-04-25
280,kawalu,-7.3817,108.2082,29.23,74,91,1.52,ID,2024-04-25
281,albania,41.0,20.0,10.37,93,100,1.64,AL,2024-04-25
282,gaiman,-43.2897,-65.4929,16.27,41,100,11.34,AR,2024-04-25
283,lompoc,34.6391,-120.4579,15.01,76,0,5.66,US,2024-04-25
284,okotoks,50.7289,-113.9828,14.07,47,45,5.13,CA,2024-04-25
285,i-n-salah,27.1935,2.4607,22.8,25,0,10.41,DZ,2024-04-25
286,santa cruz,-17.8,-63.1667,25.7,94,75,2.57,BO,2024-04-25
287,jataizinho,-23.2542,-50.98,26.32,83,0,2.57,BR,2024-04-25
288,narrabri,-30.3167,149.7833,24.18,31,86,1.34,AU,2024-04-25
289,zhezqazghan,47.7833,67.7667,8.32,66,75,11.0,KZ,2024-04-25
290,sabang,5.8933,95.3214,29.7,72,100,2.51,ID,2024-04-25
291,caleta de carquin,-11.0925,-77.6267,20.1,91,80,3.22,PE,2024-04-25
292,richland,40.7834,-82.5499,5.34,83,100,4.12,US,2024-04-25
293,happy valley-goose bay,53.3168,-60.3315,1.17,75,75,4.63,CA,2024-04-25
294,dalai,45.5,124.3,17.39,21,61,6.93,CN,2024-04-25
295,atafu village,-8.5421,-172.5159,29.6,72,56,3.08,TK,2024-04-25
296,tarrafal de sao nicolau,16.5667,-24.3667,22.44,74,98,3.27,CV,2024-04-25
297,port lincoln,-34.7333,135.8667,17.5,57,3,5.37,AU,2024-04-25
298,collinsville,38.6703,-89.9846,12.61,77,0,3.13,US,2024-04-25
299,holmestrand,59.4876,10.3176,2.44,50,100,1.1,NO,2024-04-25
300,kizel,59.0471,57.6477,0.69,89,99,0.89,RU,2024-04-25
301,vila velha,-20.3297,-40.2925,24.97,97,0,2.57,BR,2024-04-25
302,kone,-21.0595,164.8658,27.89,61,22,4.49,NC,2024-04-25
303,razole,16.4833,81.8333,34.07,43,5,2.28,IN,2024-04-25
304,constantia,44.1833,28.65,12.61,76,100,1.65,RO,2024-04-25
305,beppu,33.2736,131.4919,15.82,45,99,1.73,JP,2024-04-25
306,akrehamn,59.2667,5.1833,3.01,86,38,2.06,NO,2024-04-25
307,ancud,-41.8697,-73.8203,11.5,86,21,9.03,CL,2024-04-25
308,itigi,-5.7,34.4833,16.68,99,74,2.18,TZ,2024-04-25
309,zhigalovo,54.8097,105.1578,2.4,60,100,4.47,RU,2024-04-25
310,les avirons,-21.2418,55.3394,22.03,78,0,1.54,RE,2024-04-25
311,akureyri,65.6835,-18.0878,-0.04,86,0,1.54,IS,2024-04-25
312,onguday,50.75,86.15,-3.12,54,68,1.94,RU,2024-04-25
313,carnarvon,-24.8667,113.6333,29.1,36,37,7.72,AU,2024-04-25
314,yuzhno-kurilsk,44.0306,145.8556,5.76,99,100,5.12,RU,2024-04-25
315,adre,13.4667,22.2,26.87,13,77,4.36,TD,2024-04-25
316,vilhena,-12.7406,-60.1458,21.3,95,61,1.12,BR,2024-04-25
317,fale old settlement,-9.3852,-171.2468,29.6,74,21,4.84,TK,2024-04-25
318,mount sterling,38.0565,-83.9433,10.03,71,0,4.12,US,2024-04-25
319,kayangel,8.0823,134.7173,28.89,79,82,6.07,PW,2024-04-25
320,kingston,17.997,-76.7936,28.53,79,20,4.63,JM,2024-04-25
321,santiago de cao,-7.9589,-79.2392,20.07,88,79,4.63,PE,2024-04-25
322,waingapu,-9.6567,120.2641,29.79,72,45,5.94,ID,2024-04-25
323,tommot,58.9564,126.2925,-0.18,76,100,4.24,RU,2024-04-25
324,boguchany,58.3814,97.4531,1.69,70,58,2.2,RU,2024-04-25
325,ljubuski,43.1969,17.545,6.68,87,69,1.75,BA,2024-04-25
326,wagoner,35.9595,-95.3694,20.25,77,100,2.11,US,2024-04-25
327,dungarvan,52.0881,-7.6253,8.09,100,64,2.24,IE,2024-04-25
328,dekalb,33.7504,-84.2333,17.73,82,0,0.0,US,2024-04-25
329,kamaishi,39.2667,141.8833,16.91,66,34,3.99,JP,2024-04-25
330,kismayo,-0.3582,42.5454,27.88,84,100,4.45,SO,2024-04-25
331,luebo,-5.35,21.4167,22.07,99,100,0.84,CD,2024-04-25
332,guerrero negro,27.9769,-114.0611,15.41,75,33,8.58,MX,2024-04-25
333,suntar,62.1444,117.6319,-4.59,74,100,4.33,RU,2024-04-25
334,niebull,54.7866,8.8285,3.03,93,100,1.39,DE,2024-04-25
335,lazaro cardenas,17.9583,-102.2,24.86,79,0,1.54,MX,2024-04-25
336,flin flon,54.7682,-101.865,4.52,93,23,3.32,CA,2024-04-25
337,nyurba,63.2842,118.3319,-5.21,77,100,4.52,RU,2024-04-25
338,puerto el triunfo,13.2833,-88.55,28.52,77,13,1.47,SV,2024-04-25
339,concepcion del uruguay,-32.4825,-58.2372,13.32,85,49,2.87,AR,2024-04-25
340,hafar al-batin,28.4328,45.9708,21.32,28,0,2.06,SA,2024-04-25
341,katsuren-haebaru,26.3369,127.8719,25.01,84,75,4.12,JP,2024-04-25
342,rawa mazowiecka,51.7644,20.2549,4.4,93,100,0.74,PL,2024-04-25
343,andovoranto,-18.95,49.1,24.51,86,66,0.57,MG,2024-04-25
344,dwarka,22.2394,68.9678,27.04,67,0,4.58,IN,2024-04-25
345,boyabat,41.4689,34.7667,19.01,37,85,0.63,TR,2024-04-25
346,vilyuchinsk,52.9306,158.4028,12.15,62,100,4.89,RU,2024-04-25
347,belize city,17.4995,-88.1976,27.79,81,3,2.24,BZ,2024-04-25
348,nagqu,31.5,92.0,2.46,43,90,5.92,CN,2024-04-25
349,dunedin,-45.8742,170.5036,13.22,71,93,2.24,NZ,2024-04-25
350,kristiansund,63.1115,7.732,1.36,75,75,1.54,NO,2024-04-25
351,ostersund,63.1792,14.6357,0.25,93,75,2.06,SE,2024-04-25
352,cidade velha,14.9167,-23.6167,22.26,73,75,3.09,CV,2024-04-25
353,suva,-18.1416,178.4415,31.71,70,40,5.14,FJ,2024-04-25
354,labrador city,52.9463,-66.9114,-7.68,57,100,6.69,CA,2024-04-25
355,chonchi,-42.6128,-73.8092,10.07,88,59,4.67,CL,2024-04-25
356,zouerate,22.7187,-12.4521,24.92,22,12,3.68,MR,2024-04-25
357,norwich,52.6278,1.2983,2.96,91,72,2.57,GB,2024-04-25
358,caibarien,22.5206,-79.4669,23.62,72,39,5.25,CU,2024-04-25
359,howrah,22.5892,88.3103,34.0,46,20,3.6,IN,2024-04-25
360,karlskrona,56.1616,15.5866,-3.75,74,7,2.08,SE,2024-04-25
361,clarksdale,34.2001,-90.5709,19.99,62,86,3.09,US,2024-04-25
362,bairnsdale,-37.8333,147.6167,17.25,59,69,1.79,AU,2024-04-25
363,kudahuvadhoo,2.6708,72.8944,28.6,75,100,3.62,MV,2024-04-25
364,nzega,-2.479,29.5564,13.64,93,98,1.09,RW,2024-04-25
365,touros,-5.1989,-35.4608,26.11,79,7,4.02,BR,2024-04-25
366,san sebastian de la gomera,28.0916,-17.1133,20.2,68,0,2.57,ES,2024-04-25
367,port saint john's,-31.6229,29.5448,20.07,87,14,3.24,ZA,2024-04-25
368,naze,28.3667,129.4833,22.51,55,57,1.29,JP,2024-04-25
369,castillos,-34.1667,-53.8333,10.66,84,0,1.37,UY,2024-04-25
370,forster,-32.1667,152.5167,20.72,72,95,4.6,AU,2024-04-25
371,stanthorpe,-28.6667,151.95,21.35,64,99,3.68,AU,2024-04-25
372,east end,34.5507,-92.341,20.84,75,70,2.26,US,2024-04-25
373,tieling,42.2931,123.8414,21.72,35,5,5.13,CN,2024-04-25
374,vila franca do campo,37.7167,-25.4333,15.23,77,35,3.07,PT,2024-04-25
375,le port,-20.9373,55.2919,23.98,77,49,1.78,RE,2024-04-25
376,puerto aysen,-45.4,-72.7,5.81,99,100,1.81,CL,2024-04-25
377,vanino,49.0869,140.2543,10.51,62,100,2.75,RU,2024-04-25
378,iwaki,37.05,140.8833,22.85,50,0,7.31,JP,2024-04-25
379,lospalos,-8.5186,127.0025,28.02,71,76,4.6,TL,2024-04-25
380,tocopilla,-22.092,-70.1979,20.37,77,7,5.41,CL,2024-04-25
381,paracuru,-3.41,-39.0306,26.17,91,44,3.16,BR,2024-04-25
382,idri,27.5,13.2667,18.52,38,0,7.53,LY,2024-04-25
383,prince rupert,54.3161,-130.3201,10.83,74,40,1.54,CA,2024-04-25
384,praia da vitoria,38.7333,-27.0667,16.14,77,75,4.75,PT,2024-04-25
385,ko samui,9.5357,99.9357,32.95,62,20,2.06,TH,2024-04-25
386,dassun,17.7204,121.6816,34.1,47,15,5.32,PH,2024-04-25
387,saint-pierre,-21.3393,55.4781,22.82,78,0,1.54,RE,2024-04-25
388,kalianget,-7.05,113.9333,29.11,78,95,4.03,ID,2024-04-25
389,camana,-16.6228,-72.7111,20.42,91,55,3.5,PE,2024-04-25
390,kosong,38.3788,128.4676,22.27,46,3,3.52,KR,2024-04-25
391,colares,38.7992,-9.4469,14.07,83,41,8.94,PT,2024-04-25
392,masuguru,-11.3667,38.4167,21.66,99,85,1.07,TZ,2024-04-25
393,borgarnes,64.5383,-21.9206,7.03,76,67,3.06,IS,2024-04-25
394,pingliang,35.5392,106.6861,21.09,27,0,1.95,CN,2024-04-25
395,tamaqua,40.7973,-75.9694,10.15,61,100,2.57,US,2024-04-25
396,port blair,11.6667,92.75,33.02,66,20,2.06,IN,2024-04-25
397,arhribs,36.7936,4.3116,7.63,54,100,2.48,DZ,2024-04-25
398,orchard homes,46.8633,-114.0484,17.08,34,0,2.57,US,2024-04-25
399,pakokku,21.3333,95.1,36.12,32,13,2.85,MM,2024-04-25
400,otjimbingwe,-22.35,16.1333,21.5,26,0,2.4,,2024-04-25
401,belo sur tsiribihina,-19.7,44.55,20.73,91,1,1.22,MG,2024-04-25
402,al burayqah,30.4062,19.5739,17.71,53,100,1.44,LY,2024-04-25
403,ilheus,-14.7889,-39.0494,23.67,93,21,1.84,BR,2024-04-25
404,zacharo,37.4833,21.65,14.04,77,65,4.18,GR,2024-04-25
405,quimili,-27.6333,-62.4167,17.18,94,100,2.29,AR,2024-04-25
406,trashi yangtse,27.6116,91.498,20.12,40,18,1.76,BT,2024-04-25
407,coyhaique,-45.5752,-72.0662,5.97,93,100,1.54,CL,2024-04-25
408,yazykovo,55.2199,56.1353,12.75,84,31,3.62,RU,2024-04-25
409,salalah,17.0151,54.0924,28.05,78,0,1.54,OM,2024-04-25
410,selfoss,63.9331,-20.9971,5.69,72,75,1.1,IS,2024-04-25
411,callaway,30.153,-85.5699,20.96,87,0,2.57,US,2024-04-25
412,prado,-17.3411,-39.2208,25.21,85,0,2.36,BR,2024-04-25
413,kangding,30.0513,101.9603,11.3,97,97,0.22,CN,2024-04-25
414,saguenay,48.4168,-71.0657,-4.4,56,75,8.23,CA,2024-04-25
415,esmeraldas,-19.7625,-44.3139,23.48,80,2,1.47,BR,2024-04-25
416,zakamensk,50.3741,103.2863,1.71,39,100,2.55,RU,2024-04-25
417,umm kaddadah,13.6017,26.6876,24.41,8,3,3.56,SD,2024-04-25
418,onega,63.9061,38.1404,-1.59,93,92,1.43,RU,2024-04-25
419,oranjemund,-28.55,16.4333,13.79,94,99,3.16,,2024-04-25
420,fort st. john,56.2499,-120.8529,8.94,34,75,6.17,CA,2024-04-25
421,isna,25.2934,32.554,26.01,15,74,1.46,EG,2024-04-25
422,galliano,29.4422,-90.2992,22.0,77,0,1.54,US,2024-04-25
423,san fernando del valle de catamarca,-28.4696,-65.7852,17.55,98,83,2.56,AR,2024-04-25
424,belmonte,-15.8631,-38.8828,25.08,89,4,1.73,BR,2024-04-25
425,crane,31.3974,-102.3501,23.83,66,46,9.73,US,2024-04-25
426,kalabo,-14.97,22.6814,15.16,46,3,1.93,ZM,2024-04-25
427,augusto correa,-1.0217,-46.635,24.34,95,99,0.59,BR,2024-04-25
428,pacasmayo,-7.4006,-79.5714,20.77,83,79,3.79,PE,2024-04-25
429,descalvado,-21.9039,-47.6194,18.49,66,62,1.14,BR,2024-04-25
430,dutse,11.7594,9.3392,28.15,22,10,4.48,NG,2024-04-25
431,mao,39.8885,4.2658,11.31,71,0,2.06,ES,2024-04-25
432,muncar,-8.4333,114.3333,30.03,73,76,1.96,ID,2024-04-25
433,christchurch,-43.5333,172.6333,24.11,38,20,5.14,NZ,2024-04-25
434,ilhabela,-23.7781,-45.3581,23.15,92,100,2.34,BR,2024-04-25
435,port augusta,-32.5,137.7667,18.12,47,97,6.83,AU,2024-04-25
436,monduli,-3.3,36.45,18.09,96,93,1.95,TZ,2024-04-25
437,wanning,18.8003,110.3967,30.95,64,0,7.71,CN,2024-04-25
438,timmins,48.4669,-81.3331,-4.1,68,0,0.0,CA,2024-04-25
439,vorkuta,67.5,64.0,-11.41,87,95,1.15,RU,2024-04-25
440,la ronge,55.1001,-105.2842,12.14,32,75,5.66,CA,2024-04-25
441,ta`u,-14.2336,-169.5144,28.56,72,61,4.83,AS,2024-04-25
442,buckie,57.6757,-2.9624,4.88,83,85,7.95,GB,2024-04-25
443,mapastepec,15.4333,-92.9,27.4,81,20,0.72,MX,2024-04-25
444,holualoa,19.6228,-155.9522,25.91,82,100,4.63,US,2024-04-25
445,taguatinga,-12.3857,-46.5711,25.73,57,34,1.13,BR,2024-04-25
446,las vegas,36.175,-115.1372,26.88,15,20,7.2,US,2024-04-25
447,sumbe,-11.2061,13.8437,26.05,90,100,2.95,AO,2024-04-25
448,katima mulilo,-17.5,24.2667,15.38,48,0,0.63,,2024-04-25
449,toliara,-23.35,43.6667,20.93,89,1,3.94,MG,2024-04-25
450,tazacorte,28.629,-17.9293,18.54,59,0,4.12,ES,2024-04-25
451,port douglas,-16.4833,145.4667,26.79,66,63,5.21,AU,2024-04-25
452,posadas,-27.3671,-55.8961,21.81,99,99,1.94,AR,2024-04-25
453,corner brook,48.9667,-57.9484,2.09,99,100,1.2,CA,2024-04-25
454,shenjiamen,29.9576,122.298,14.88,75,98,2.83,CN,2024-04-25
455,amarante do maranhao,-5.5667,-46.7422,22.71,95,23,1.06,BR,2024-04-25
456,cabo san lucas,22.8909,-109.9124,25.9,63,70,4.88,MX,2024-04-25
457,bel ombre,-4.6167,55.4167,25.91,89,75,4.12,SC,2024-04-25
458,calvinia,-31.4707,19.776,13.3,60,2,1.53,ZA,2024-04-25
459,puerto leguizamo,-0.1934,-74.7819,23.32,97,100,0.83,CO,2024-04-25
460,bocas del toro,9.3333,-82.25,25.03,75,94,2.75,PA,2024-04-25
461,komotini,41.1228,25.3964,13.36,94,100,2.01,GR,2024-04-25
462,necochea,-38.5473,-58.7368,9.3,86,2,4.25,AR,2024-04-25
463,mandal,25.45,74.5667,31.88,17,3,3.0,IN,2024-04-25
464,khovd,48.0056,91.6419,0.89,36,44,3.54,MN,2024-04-25
465,aral,40.5156,81.2636,22.57,18,3,0.86,CN,2024-04-25
466,puducherry,11.9333,79.8167,30.84,61,1,3.71,IN,2024-04-25
467,posto fiscal rolim de moura,-13.0833,-62.2667,24.35,91,55,1.2,BR,2024-04-25
468,fortuna foothills,32.6578,-114.4119,30.05,26,0,7.2,US,2024-04-25
469,auki,-8.7676,160.7034,30.61,67,52,2.59,SB,2024-04-25
470,puerto armuelles,8.2833,-82.8667,26.16,86,83,2.24,PA,2024-04-25
471,mejit,10.2753,170.8646,27.44,77,100,8.85,MH,2024-04-25
472,trondheim,63.4305,10.3951,1.05,89,100,2.28,NO,2024-04-25
473,mont-dore,-22.2833,166.5833,27.99,99,42,4.44,NC,2024-04-25
474,bay roberts,47.5999,-53.2648,10.51,99,100,7.75,CA,2024-04-25
475,codrington,-38.2667,141.9667,14.38,65,93,6.21,AU,2024-04-25
476,vilyuysk,63.7553,121.6247,-9.44,85,100,5.81,RU,2024-04-25
477,yanchep,-31.55,115.6833,20.07,38,96,6.07,AU,2024-04-25
478,samfya,-11.3649,29.5565,17.06,78,71,3.48,ZM,2024-04-25
479,canela,-29.3656,-50.8156,14.37,97,86,0.4,BR,2024-04-25
480,kourou,5.1552,-52.6478,26.03,77,99,2.86,GF,2024-04-25
481,san,13.3034,-4.8956,35.45,13,100,2.19,ML,2024-04-25
482,margate,51.3813,1.3862,4.83,74,100,3.86,GB,2024-04-25
483,nelson bay,-32.7167,152.15,21.67,66,98,4.47,AU,2024-04-25
484,tobol,52.6844,62.5794,7.67,54,100,5.86,KZ,2024-04-25
485,katsuura,35.1333,140.3,21.01,83,100,4.07,JP,2024-04-25
486,wladyslawowo,54.7909,18.4009,1.08,80,59,2.91,PL,2024-04-25
487,kiffa,16.6166,-11.4045,32.37,15,3,4.31,MR,2024-04-25
488,isangel,-19.55,169.2667,28.06,83,40,3.09,VU,2024-04-25
489,bodaybo,57.8506,114.1933,3.09,76,100,2.95,RU,2024-04-25
490,cooma,-36.2333,149.1333,12.13,38,6,4.13,AU,2024-04-25
491,sault ste. marie,46.5168,-84.3333,-0.84,64,0,2.57,CA,2024-04-25
492,talakan,50.3167,130.3667,15.07,68,86,8.42,RU,2024-04-25
493,novyy urgal,51.0736,132.5642,16.68,47,100,5.79,RU,2024-04-25
494,novo aripuana,-5.1206,-60.3797,23.51,99,83,0.85,BR,2024-04-25
495,mar del plata,-38.0023,-57.5575,12.71,86,0,1.34,AR,2024-04-25
496,floro,61.5996,5.0328,2.04,87,100,2.57,NO,2024-04-25
497,nicoya,10.1483,-85.452,27.22,68,59,5.67,CR,2024-04-25
498,kavieng,-2.5744,150.7967,29.55,76,80,5.02,PG,2024-04-25
499,machico,32.7,-16.7667,18.35,65,20,5.66,PT,2024-04-25
500,berdigestyakh,62.0989,126.6992,-6.67,81,100,6.02,RU,2024-04-25
501,bratsk,56.1325,101.6142,1.27,46,76,4.56,RU,2024-04-25
502,zaidpur,26.8333,81.3333,31.04,13,1,3.07,IN,2024-04-25
503,la passe,45.5549,-0.8967,11.1,88,90,5.17,FR,2024-04-25
504,pacific grove,36.6177,-121.9166,14.27,84,100,4.02,US,2024-04-25
505,riviere-du-loup,47.8304,-69.5342,-3.51,68,100,5.66,CA,2024-04-25
506,rosaryville,38.7568,-76.8097,16.64,66,0,4.12,US,2024-04-25
507,sao tome,0.3365,6.7273,27.85,82,99,3.04,ST,2024-04-25
508,krasnovishersk,60.4078,57.082,-1.84,94,100,3.73,RU,2024-04-25
509,jayapura,-2.5333,140.7,32.66,63,13,2.52,ID,2024-04-25
510,broken hill,-31.95,141.4333,16.11,39,73,7.69,AU,2024-04-25
511,maile,-38.9466,-72.3727,10.34,95,100,3.51,CL,2024-04-25
512,labuan bajo,-8.4964,119.8877,29.87,71,100,1.96,ID,2024-04-25
513,saiha,22.4833,92.9667,33.32,35,0,1.26,IN,2024-04-25
514,puerto baquerizo moreno,-0.9,-89.6,25.06,86,20,2.66,EC,2024-04-25
515,ouesso,1.6136,16.0517,20.8,99,87,0.97,CG,2024-04-25
516,pangoa,-12.1167,-73.0,21.55,99,100,0.75,PE,2024-04-25
517,chebba,35.2372,11.115,11.29,61,0,4.88,TN,2024-04-25
518,gagarin,55.5529,34.9954,9.39,90,95,6.69,RU,2024-04-25
519,mount isa,-20.7333,139.5,28.87,32,100,5.14,AU,2024-04-25
520,toledo,39.8333,-4.0,8.85,55,49,0.68,ES,2024-04-25
521,usinsk,65.9939,57.5281,-9.4,95,46,2.68,RU,2024-04-25
522,torghay,49.6339,63.4981,12.03,55,100,9.05,KZ,2024-04-25
523,palestine,31.9216,35.2033,24.97,24,85,8.24,PS,2024-04-25
524,talara,-4.5772,-81.2719,24.42,78,0,6.69,PE,2024-04-25
525,lokomotivnyy,53.0118,60.5684,6.31,56,100,4.64,RU,2024-04-25
526,jaicos,-7.3592,-41.1378,23.15,71,21,1.03,BR,2024-04-25
527,mokhsogollokh,61.4681,128.9203,-4.32,86,100,5.94,RU,2024-04-25
528,svetlyy yar,48.4748,44.781,12.78,59,30,3.9,RU,2024-04-25
529,weatherford,32.7593,-97.7972,23.8,80,99,0.45,US,2024-04-25
530,sarkand,45.41,79.9186,13.79,46,95,1.9,KZ,2024-04-25
531,tromso,69.6496,18.957,1.01,75,20,1.03,NO,2024-04-25
532,tongouson,5.0214,120.1328,28.88,78,93,3.78,PH,2024-04-25
533,qarazhal,48.0078,70.7903,13.69,49,49,7.37,KZ,2024-04-25
534,makokou,0.5738,12.8642,21.1,98,99,0.48,GA,2024-04-25
535,rosarito,32.3333,-117.0333,16.38,75,43,4.85,MX,2024-04-25
536,northam,51.0333,-4.2167,6.45,87,16,1.68,GB,2024-04-25
537,urangan,-25.3,152.9,24.41,51,5,0.39,AU,2024-04-25
538,moyale,3.5167,39.0584,19.42,91,100,1.17,KE,2024-04-25
539,tolanaro,-25.0319,46.9987,22.04,88,20,4.12,MG,2024-04-25
540,powell river,49.8496,-124.5361,11.22,76,75,3.6,CA,2024-04-25
541,bodo,67.28,14.405,2.02,70,0,7.72,NO,2024-04-25
542,tafresh,34.692,50.013,8.52,76,5,1.64,IR,2024-04-25
543,faya-largeau,17.9257,19.1043,30.68,11,5,2.58,TD,2024-04-25
544,lubang,13.8584,120.124,28.96,79,0,8.34,PH,2024-04-25
545,kapa'a,22.0752,-159.319,27.99,82,100,8.23,US,2024-04-25
546,tofol,5.3248,163.0078,28.6,78,77,6.01,FM,2024-04-25
547,khandyga,62.6667,135.6,-1.66,83,100,3.89,RU,2024-04-25
548,norderney,53.7,7.15,5.01,75,100,8.6,DE,2024-04-25
549,church hill,36.5223,-82.7135,13.66,82,18,1.15,US,2024-04-25
550,pirai do sul,-24.5261,-49.9486,16.81,98,92,1.06,BR,2024-04-25
551,bandiagara,14.3501,-3.6104,32.53,15,93,4.57,ML,2024-04-25
552,burang,30.25,81.1667,-0.24,30,5,1.74,CN,2024-04-25
553,bamboo flat,11.7,92.7167,33.05,66,20,2.06,IN,2024-04-25
554,palmas,-10.2128,-48.3603,25.93,94,0,1.54,BR,2024-04-25
555,kangaba,11.9333,-8.4167,33.17,26,94,1.56,ML,2024-04-25
556,trinidad,-14.8333,-64.9,24.7,92,35,1.67,BO,2024-04-25
557,dryden,49.7833,-92.7503,8.16,31,0,3.6,CA,2024-04-25
558,jalesar,27.4833,78.3167,32.41,18,94,2.39,IN,2024-04-25
559,georgievka,49.3314,81.5761,1.03,31,9,4.52,KZ,2024-04-25
560,firozpur jhirka,27.8,76.95,31.23,19,91,2.81,IN,2024-04-25
